### begin m_save_log ###
#############
$JD_CAP_V,131.93,1007,*
$JD_IMU,1.77,0.89,*
$JD_POS,49.63,4.02,*
$GPGGA,142117.80,4937.6034930,N,401.3376506,E,4,15,1.0,135.043,M,45.60,M,01,0141*53
$GPRMC,142117.80,A,4937.6035377,N,00401.3373636,E,1.797,230.8,191122,0.0,E,D*39
$IMU_ACC,-0.08,0.16,0.92,*
$IMU_GYRO,-17.58,-2.99,10.50,*
$IMU_ANGLE,0.58,1.66,-64.90,*
$IMU_MAG,-10905,-1072,-430,*
$LEMCA,ERRROR,0.04,m,99.00,°
$GPGGA,142117.90,4937.6034318,N,401.3376432,E,4,15,1.0,135.060,M,45.60,M,01,0141*55
$GPRMC,142117.90,A,4937.6034947,N,00401.3373111,E,1.976,218.4,191122,0.0,E,D*35
$IMU_ACC,0.02,0.09,0.89,*
$IMU_GYRO,-16.05,-2.26,6.16,*
$IMU_ANGLE,-0.77,1.18,-65.78,*
$IMU_MAG,-11094,-1146,-420,*
$LEMCA,ERRROR,0.05,m,83.00,°
$JD_CAP_V,139.42,936,*
$JD_IMU,0.91,-1.44,*
$JD_POS,49.63,4.02,*
$GPGGA,142118.00,4937.6034002,N,401.3376390,E,4,15,1.0,135.052,M,45.60,M,01,0141*55
$GPRMC,142118.00,A,4937.6034553,N,00401.3372550,E,1.935,222.8,191122,0.0,E,D*38
$IMU_ACC,-0.01,0.08,0.93,*
$IMU_GYRO,-9.52,-0.18,2.08,*
$IMU_ANGLE,-1.74,0.77,-66.96,*
$IMU_MAG,-10794,-1178,-428,*
$LEMCA,ERRROR,0.05,m,83.00,°
$GPGGA,142118.10,4937.6033471,N,401.3376017,E,4,16,1.0,135.041,M,45.60,M,01,0141*5E
$GPRMC,142118.10,A,4937.6034086,N,00401.3371920,E,2.236,221.2,191122,0.0,E,D*3E
$IMU_ACC,-0.03,0.05,1.04,*
$IMU_GYRO,-6.04,-0.49,-0.06,*
$IMU_ANGLE,-2.19,0.47,-68.36,*
$IMU_MAG,-10966,-1015,-431,*
$LEMCA,ERRROR,0.06,m,77.00,°
$JD_CAP_V,147.17,1060,*
$JD_IMU,0.34,-2.22,*
$JD_POS,49.63,4.02,*
$GPGGA,142118.20,4937.6032996,N,401.3375362,E,4,16,1.0,135.037,M,45.60,M,01,0141*5B
$GPRMC,142118.20,A,4937.6033589,N,00401.3371263,E,2.361,220.6,191122,0.0,E,D*3A
$IMU_ACC,-0.08,0.07,1.13,*
$IMU_GYRO,-1.53,0.49,1.53,*
$IMU_ANGLE,-2.19,0.31,-69.69,*
$IMU_MAG,-11140,-962,-447,*
$LEMCA,ERRROR,0.06,m,73.00,°
$GPGGA,142118.30,4937.6032540,N,401.3374605,E,4,16,1.0,135.052,M,45.60,M,01,0141*5B
$GPRMC,142118.30,A,4937.6033119,N,00401.3370566,E,2.353,224.0,191122,0.0,E,D*36
$IMU_ACC,-0.04,0.03,1.01,*
$IMU_GYRO,-1.89,-0.12,0.00,*
$IMU_ANGLE,-2.16,0.24,-71.09,*
$IMU_MAG,-11001,-1215,-419,*
$LEMCA,ERRROR,0.06,m,73.00,°
$JD_CAP_V,154.36,1115,*
$JD_IMU,0.15,-2.11,*
$JD_POS,49.63,4.02,*
$GPGGA,142118.40,4937.6032086,N,401.3373819,E,4,16,1.0,135.062,M,45.60,M,01,0141*54
$GPRMC,142118.40,A,4937.6032622,N,00401.3369941,E,2.312,219.2,191122,0.0,E,D*37
$IMU_ACC,-0.04,0.02,0.90,*
$IMU_GYRO,0.24,-1.46,8.18,*
$IMU_ANGLE,-2.03,0.08,-71.84,*
$IMU_MAG,-11292,-1173,-431,*
$LEMCA,ERRROR,0.05,m,65.00,°
$GPGGA,142118.50,4937.6031739,N,401.3372929,E,4,16,1.0,135.073,M,45.60,M,01,0141*56
$GPRMC,142118.50,A,4937.6032085,N,00401.3369146,E,2.409,222.2,191122,0.0,E,D*37
$IMU_ACC,-0.02,0.02,0.86,*
$IMU_GYRO,0.31,-4.76,9.34,*
$IMU_ANGLE,-1.81,-0.29,-72.04,*
$IMU_MAG,-11283,-1113,-423,*
$LEMCA,ERRROR,0.07,m,66.00,°
$JD_CAP_V,159.17,1142,*
$JD_IMU,-0.68,-1.69,*
$JD_POS,49.63,4.02,*
$GPGGA,142118.60,4937.6031299,N,401.3372010,E,4,16,1.0,135.071,M,45.60,M,01,0141*5B
$GPRMC,142118.60,A,4937.6031547,N,00401.3368399,E,2.612,222.0,191122,0.0,E,D*37
$IMU_ACC,-0.01,-0.01,0.95,*
$IMU_GYRO,2.62,-4.70,4.70,*
$IMU_ANGLE,-1.59,-0.88,-72.50,*
$IMU_MAG,-11112,-852,-440,*
$LEMCA,ERRROR,0.06,m,63.00,°
$GPGGA,142118.70,4937.6030920,N,401.3371109,E,4,16,1.0,135.045,M,45.60,M,01,0141*5F
$GPRMC,142118.70,A,4937.6031098,N,00401.3367658,E,2.372,227.0,191122,0.0,E,D*30
$IMU_ACC,-0.13,0.09,1.13,*
$IMU_GYRO,9.40,-2.56,8.30,*
$IMU_ANGLE,-0.85,-1.27,-73.30,*
$IMU_MAG,-11302,-1389,-378,*
$LEMCA,ERRROR,0.05,m,66.00,°
$JD_CAP_V,164.29,1124,*
$JD_IMU,-1.35,-0.12,*
$JD_POS,49.63,4.02,*
$GPGGA,142118.80,4937.6030434,N,401.3370238,E,4,16,1.0,135.052,M,45.60,M,01,0141*5E
$GPRMC,142118.80,A,4937.6030622,N,00401.3366925,E,2.426,225.0,191122,0.0,E,D*39
$IMU_ACC,-0.10,0.06,1.08,*
$IMU_GYRO,8.91,-4.76,1.71,*
$IMU_ANGLE,0.24,-1.45,-73.82,*
$IMU_MAG,-10459,-854,-428,*
$LEMCA,ERRROR,0.05,m,60.00,°
$GPGGA,142118.90,4937.6030006,N,401.3369395,E,4,16,1.0,135.070,M,45.60,M,01,0141*54
$GPRMC,142118.90,A,4937.6030150,N,00401.3366145,E,2.494,227.1,191122,0.0,E,D*3E
$IMU_ACC,0.01,0.07,0.95,*
$IMU_GYRO,-1.89,-13.06,-12.39,*
$IMU_ANGLE,0.51,-2.30,-75.95,*
$IMU_MAG,-10698,-874,-436,*
$LEMCA,ERRROR,0.05,m,58.00,°
$JD_CAP_V,171.33,1182,*
$JD_IMU,-3.05,0.20,*
$JD_POS,49.63,4.02,*
$GPGGA,142119.00,4937.6029495,N,401.3368688,E,4,16,1.0,135.104,M,45.60,M,01,0141*50
$GPRMC,142119.00,A,4937.6029714,N,00401.3365411,E,2.328,227.5,191122,0.0,E,D*3B
$IMU_ACC,0.07,0.09,0.80,*
$IMU_GYRO,-11.66,-11.78,-0.55,*
$IMU_ANGLE,-0.12,-3.47,-77.81,*
$IMU_MAG,-10970,-949,-427,*
$LEMCA,ERRROR,0.04,m,56.00,°
$GPGGA,142119.10,4937.6028873,N,401.3367952,E,4,17,1.0,135.098,M,45.60,M,01,0141*56
$GPRMC,142119.10,A,4937.6029237,N,00401.3364671,E,2.441,225.2,191122,0.0,E,D*36
$IMU_ACC,0.05,0.05,0.86,*
$IMU_GYRO,-15.99,-10.19,1.34,*
$IMU_ANGLE,-1.40,-4.67,-78.74,*
$IMU_MAG,-10866,-1220,-421,*
$LEMCA,ERRROR,0.04,m,51.00,°
$JD_CAP_V,176.62,1157,*
$JD_IMU,-5.38,-2.14,*
$JD_POS,49.63,4.02,*
$GPGGA,142119.20,4937.6028219,N,401.3367012,E,4,17,1.0,135.077,M,45.60,M,01,0141*5F
$GPRMC,142119.20,A,4937.6028698,N,00401.3363853,E,2.727,224.6,191122,0.0,E,D*3A
$IMU_ACC,0.07,-0.04,1.09,*
$IMU_GYRO,-6.77,-7.32,-9.70,*
$IMU_ANGLE,-2.38,-5.68,-80.22,*
$IMU_MAG,-11077,-1307,-426,*
$LEMCA,ERRROR,0.06,m,47.00,°
$GPGGA,142119.30,4937.6027629,N,401.3365724,E,4,17,1.0,135.069,M,45.60,M,01,0141*59
$GPRMC,142119.30,A,4937.6028220,N,00401.3362983,E,2.666,229.8,191122,0.0,E,D*36
$IMU_ACC,0.06,-0.01,1.16,*
$IMU_GYRO,9.64,3.91,-20.45,*
$IMU_ANGLE,-2.02,-5.89,-82.91,*
$IMU_MAG,-10401,-965,-401,*
$LEMCA,ERRROR,0.05,m,47.00,°
$JD_CAP_V,184.37,1263,*
$JD_IMU,-5.48,-1.31,*
$JD_POS,49.63,4.02,*
$GPGGA,142119.40,4937.6027081,N,401.3364297,E,4,17,1.0,135.068,M,45.60,M,01,0141*57
$GPRMC,142119.40,A,4937.6027775,N,00401.3362018,E,2.769,234.6,191122,0.0,E,D*3C
$IMU_ACC,-0.03,0.05,1.05,*
$IMU_GYRO,10.50,5.55,-7.39,*
$IMU_ANGLE,-0.93,-5.26,-84.88,*
$IMU_MAG,-10546,-912,-420,*
$LEMCA,ERRROR,0.05,m,49.00,°
$GPGGA,142119.50,4937.6026565,N,401.3362942,E,4,17,1.0,135.063,M,45.60,M,01,0141*56
$GPRMC,142119.50,A,4937.6027297,N,00401.3361040,E,2.714,230.5,191122,0.0,E,D*37
$IMU_ACC,0.03,0.04,0.85,*
$IMU_GYRO,2.32,2.32,-3.36,*
$IMU_ANGLE,-0.30,-4.83,-85.89,*
$IMU_MAG,-10730,-988,-410,*
$LEMCA,ERRROR,0.05,m,42.00,°
$JD_CAP_V,190.05,1286,*
$JD_IMU,-4.82,-0.26,*
$JD_POS,49.63,4.02,*
$GPGGA,142119.60,4937.6026123,N,401.3361819,E,4,17,1.0,135.054,M,45.60,M,01,0141*5B
$GPRMC,142119.60,A,4937.6026825,N,00401.3360108,E,2.767,232.1,191122,0.0,E,D*38
$IMU_ACC,0.04,0.03,0.89,*
$IMU_GYRO,-2.87,-2.87,-9.52,*
$IMU_ANGLE,-0.34,-4.90,-87.18,*
$IMU_MAG,-10565,-1132,-427,*
$LEMCA,ERRROR,0.05,m,41.00,°
$GPGGA,142119.70,4937.6025657,N,401.3360973,E,4,17,1.0,135.051,M,45.60,M,01,0141*54
$GPRMC,142119.70,A,4937.6026360,N,00401.3359228,E,2.655,230.9,191122,0.0,E,D*32
$IMU_ACC,-0.00,0.06,1.13,*
$IMU_GYRO,-3.54,1.10,-0.43,*
$IMU_ANGLE,-0.62,-5.10,-88.28,*
$IMU_MAG,-10408,-1106,-428,*
$LEMCA,ERRROR,0.04,m,37.00,°
$JD_CAP_V,194.99,1258,*
$JD_IMU,-4.69,-0.63,*
$JD_POS,49.63,4.02,*
$GPGGA,142119.80,4937.6025183,N,401.3360075,E,4,17,1.0,135.048,M,45.60,M,01,0141*52
$GPRMC,142119.80,A,4937.6025897,N,00401.3358261,E,2.811,233.6,191122,0.0,E,D*33
$IMU_ACC,-0.11,0.17,1.15,*
$IMU_GYRO,0.98,12.94,11.29,*
$IMU_ANGLE,-0.54,-4.23,-88.18,*
$IMU_MAG,-10464,-1198,-428,*
$LEMCA,ERRROR,0.05,m,39.00,°
$GPGGA,142119.90,4937.6024621,N,401.3359275,E,4,17,1.0,135.077,M,45.60,M,01,0141*59
$GPRMC,142119.90,A,4937.6025373,N,00401.3357323,E,2.897,229.3,191122,0.0,E,D*3B
$IMU_ACC,-0.07,0.10,0.96,*
$IMU_GYRO,-7.57,12.27,12.76,*
$IMU_ANGLE,-0.66,-2.77,-87.29,*
$IMU_MAG,-10177,-1058,-419,*
$LEMCA,ERRROR,0.05,m,34.00,°
$JD_CAP_V,196.31,1373,*
$JD_IMU,-2.04,-1.15,*
$JD_POS,49.63,4.02,*
$GPGGA,142120.00,4937.6024126,N,401.3358701,E,4,17,1.0,135.112,M,45.60,M,01,0141*5F
$GPRMC,142120.00,A,4937.6024887,N,00401.3356540,E,2.535,226.3,191122,0.0,E,D*31
$IMU_ACC,0.02,0.02,0.75,*
$IMU_GYRO,-15.69,5.92,4.27,*
$IMU_ANGLE,-1.64,-1.77,-86.96,*
$IMU_MAG,-10524,-1311,-410,*
$LEMCA,ERRROR,0.03,m,30.00,°
$GPGGA,142120.10,4937.6023615,N,401.3358107,E,4,17,1.0,135.113,M,45.60,M,01,0141*5F
$GPRMC,142120.10,A,4937.6024336,N,00401.3355702,E,2.790,224.7,191122,0.0,E,D*3D
$IMU_ACC,0.02,-0.00,0.80,*
$IMU_GYRO,-18.62,-2.62,-5.80,*
$IMU_ANGLE,-3.14,-1.77,-87.69,*
$IMU_MAG,-10546,-973,-422,*
$LEMCA,ERRROR,0.04,m,26.00,°
$JD_CAP_V,199.32,1322,*
$JD_IMU,-2.19,-4.16,*
$JD_POS,49.63,4.02,*
$GPGGA,142120.20,4937.6023194,N,401.3357551,E,4,18,1.0,135.100,M,45.60,M,01,0141*57
$GPRMC,142120.20,A,4937.6023832,N,00401.3354922,E,2.576,225.1,191122,0.0,E,D*36
$IMU_ACC,-0.03,-0.09,1.03,*
$IMU_GYRO,-11.23,-7.81,-8.67,*
$IMU_ANGLE,-4.58,-2.48,-88.98,*
$IMU_MAG,-10282,-1149,-403,*
$LEMCA,ERRROR,0.03,m,24.00,°
$GPGGA,142120.30,4937.6022838,N,401.3356568,E,4,18,1.0,135.081,M,45.60,M,01,0141*5B
$GPRMC,142120.30,A,4937.6023315,N,00401.3354058,E,2.749,227.4,191122,0.0,E,D*34
$IMU_ACC,-0.09,-0.06,1.22,*
$IMU_GYRO,8.30,-3.17,-11.35,*
$IMU_ANGLE,-4.68,-3.26,-90.74,*
$IMU_MAG,-10569,-1108,-428,*
$LEMCA,ERRROR,0.03,m,24.00,°
$JD_CAP_V,203.81,1303,*
$JD_IMU,-3.01,-3.88,*
$JD_POS,49.63,4.02,*
$GPGGA,142120.40,4937.6022613,N,401.3355398,E,4,18,1.0,135.083,M,45.60,M,00,0141*52
$GPRMC,142120.40,A,4937.6022879,N,00401.3353077,E,2.731,233.2,191122,0.0,E,D*35
$IMU_ACC,-0.07,-0.04,1.06,*
$IMU_GYRO,13.31,7.39,12.88,*
$IMU_ANGLE,-3.50,-2.75,-90.57,*
$IMU_MAG,-10257,-1045,-417,*
$LEMCA,ERRROR,0.03,m,30.00,°
$GPGGA,142120.50,4937.6022354,N,401.3354358,E,4,18,1.0,135.099,M,45.60,M,01,0141*52
$GPRMC,142120.50,A,4937.6022437,N,00401.3352251,E,2.506,230.5,191122,0.0,E,D*37
$IMU_ACC,-0.05,-0.06,0.89,*
$IMU_GYRO,9.89,4.46,2.01,*
$IMU_ANGLE,-2.36,-1.87,-89.99,*
$IMU_MAG,-10331,-981,-420,*
$LEMCA,ERRROR,0.02,m,26.00,°
$JD_CAP_V,205.19,1188,*
$JD_IMU,-1.64,-1.98,*
$JD_POS,49.63,4.02,*
$GPGGA,142120.60,4937.6022111,N,401.3353411,E,4,18,1.0,135.106,M,45.60,M,01,0141*58
$GPRMC,142120.60,A,4937.6021982,N,00401.3351442,E,2.503,229.1,191122,0.0,E,D*3A
$IMU_ACC,-0.05,-0.02,0.81,*
$IMU_GYRO,2.44,-1.77,-6.53,*
$IMU_ANGLE,-1.92,-1.65,-90.73,*
$IMU_MAG,-10977,-1096,-441,*
$LEMCA,ERRROR,0.02,m,23.00,°
$GPGGA,142120.70,4937.6021894,N,401.3352613,E,4,18,1.0,135.092,M,45.60,M,01,0141*53
$GPRMC,142120.70,A,4937.6021585,N,00401.3350550,E,2.534,235.6,191122,0.0,E,D*3D
$IMU_ACC,-0.03,-0.06,0.97,*
$IMU_GYRO,0.61,-8.67,-3.05,*
$IMU_ANGLE,-2.05,-2.18,-91.50,*
$IMU_MAG,-10703,-882,-441,*
$LEMCA,ERRROR,0.02,m,28.00,°
$JD_CAP_V,208.72,1201,*
$JD_IMU,-2.75,-1.97,*
$JD_POS,49.63,4.02,*
$GPGGA,142120.80,4937.6021569,N,401.3351862,E,4,18,1.0,135.080,M,45.60,M,01,0141*5B
$GPRMC,142120.80,A,4937.6021189,N,00401.3349696,E,2.455,234.4,191122,0.0,E,D*3E
$IMU_ACC,-0.05,-0.00,1.12,*
$IMU_GYRO,7.51,-10.68,1.83,*
$IMU_ANGLE,-1.79,-3.08,-91.67,*
$IMU_MAG,-10141,-860,-418,*
$LEMCA,ERRROR,0.01,m,25.00,°
$GPGGA,142120.90,4937.6021223,N,401.3350948,E,4,18,1.0,135.082,M,45.60,M,01,0141*59
$GPRMC,142120.90,A,4937.6020827,N,00401.3348790,E,2.489,238.4,191122,0.0,E,D*38
$IMU_ACC,-0.01,0.04,1.05,*
$IMU_GYRO,7.87,-9.03,5.86,*
$IMU_ANGLE,-1.12,-3.98,-91.54,*
$IMU_MAG,-10349,-1371,-371,*
$LEMCA,ERRROR,0.01,m,29.00,°
$JD_CAP_V,210.70,1180,*
$JD_IMU,-4.47,-0.76,*
$JD_POS,49.63,4.02,*
$GPGGA,142121.00,4937.6020791,N,401.3350026,E,4,18,1.0,135.091,M,45.60,M,01,0141*5F
$GPRMC,142121.00,A,4937.6020482,N,00401.3347875,E,2.477,239.9,191122,0.0,E,D*35
$IMU_ACC,0.05,0.03,0.96,*
$IMU_GYRO,1.89,-7.57,6.35,*
$IMU_ANGLE,-0.66,-4.75,-91.12,*
$IMU_MAG,-10558,-1263,-420,*
$LEMCA,ERRROR,0.01,m,29.00,°
$GPGGA,142121.10,4937.6020245,N,401.3349033,E,4,20,1.0,135.095,M,45.60,M,01,0141*51
$GPRMC,142121.10,A,4937.6020094,N,00401.3346975,E,2.527,236.4,191122,0.0,E,D*31
$IMU_ACC,0.09,0.02,0.79,*
$IMU_GYRO,-7.02,-5.43,-3.05,*
$IMU_ANGLE,-0.93,-5.33,-91.31,*
$IMU_MAG,-10801,-1113,-420,*
$LEMCA,ERRROR,0.01,m,24.00,°
$JD_CAP_V,213.09,1198,*
$JD_IMU,-5.69,-1.54,*
$JD_POS,49.63,4.02,*
$GPGGA,142121.20,4937.6019660,N,401.3347996,E,4,20,1.0,135.081,M,45.60,M,01,0141*56
$GPRMC,142121.20,A,4937.6019705,N,00401.3346072,E,2.537,236.4,191122,0.0,E,D*38
$IMU_ACC,0.07,0.01,0.86,*
$IMU_GYRO,-13.12,-1.71,-8.24,*
$IMU_ANGLE,-1.95,-5.81,-92.27,*
$IMU_MAG,-9968,-1378,-391,*
$LEMCA,ERRROR,0.01,m,22.00,°
$GPGGA,142121.30,4937.6019059,N,401.3346934,E,4,20,1.0,135.055,M,45.60,M,01,0141*5B
$GPRMC,142121.30,A,4937.6019285,N,00401.3345138,E,2.660,235.3,191122,0.0,E,D*3D
$IMU_ACC,0.08,-0.06,1.11,*
$IMU_GYRO,-8.30,3.78,-9.22,*
$IMU_ANGLE,-3.01,-5.86,-93.28,*
$IMU_MAG,-10383,-1066,-416,*
$LEMCA,ERRROR,0.02,m,19.00,°
$JD_CAP_V,216.93,1261,*
$JD_IMU,-5.53,-3.28,*
$JD_POS,49.63,4.02,*
$GPGGA,142121.40,4937.6018540,N,401.3345568,E,4,20,0.8,135.042,M,45.60,M,00,0141*58
$GPRMC,142121.40,A,4937.6018883,N,00401.3344055,E,2.659,240.7,191122,0.0,E,D*30
$IMU_ACC,-0.04,-0.02,1.16,*
$IMU_GYRO,2.69,8.48,-6.71,*
$IMU_ANGLE,-3.24,-5.25,-94.35,*
$IMU_MAG,-10119,-1068,-410,*
$LEMCA,ERRROR,0.03,m,23.00,°
$GPGGA,142121.50,4937.6018132,N,401.3344331,E,4,20,0.8,135.041,M,45.60,M,01,0141*51
$GPRMC,142121.50,A,4937.6018493,N,00401.3343053,E,2.735,239.1,191122,0.0,E,D*3E
$IMU_ACC,-0.04,0.00,1.00,*
$IMU_GYRO,5.74,7.69,11.96,*
$IMU_ANGLE,-2.77,-4.32,-94.18,*
$IMU_MAG,-10236,-1116,-408,*
$LEMCA,ERRROR,0.02,m,21.00,°
$JD_CAP_V,218.64,1296,*
$JD_IMU,-3.79,-2.45,*
$JD_POS,49.63,4.02,*
$GPGGA,142121.60,4937.6017900,N,401.3343313,E,4,20,0.8,135.050,M,45.60,M,01,0141*53
$GPRMC,142121.60,A,4937.6018185,N,00401.3342117,E,2.455,243.1,191122,0.0,E,D*37
$IMU_ACC,-0.01,-0.01,0.88,*
$IMU_GYRO,1.83,4.27,16.91,*
$IMU_ANGLE,-2.35,-3.58,-92.65,*
$IMU_MAG,-10373,-1266,-400,*
$LEMCA,ERRROR,0.01,m,26.00,°
$GPGGA,142121.70,4937.6017624,N,401.3342446,E,4,20,0.8,135.039,M,45.60,M,01,0141*52
$GPRMC,142121.70,A,4937.6017834,N,00401.3341192,E,2.508,239.7,191122,0.0,E,D*36
$IMU_ACC,-0.04,-0.04,0.92,*
$IMU_GYRO,-2.38,-3.05,8.18,*
$IMU_ANGLE,-2.43,-3.42,-91.68,*
$IMU_MAG,-10395,-1173,-393,*
$LEMCA,ERRROR,0.01,m,22.00,°
$JD_CAP_V,218.55,1189,*
$JD_IMU,-3.73,-2.59,*
$JD_POS,49.63,4.02,*
$GPGGA,142121.80,4937.6017426,N,401.3341758,E,4,20,0.8,135.026,M,45.60,M,01,0141*5C
$GPRMC,142121.80,A,4937.6017539,N,00401.3340270,E,2.405,243.8,191122,0.0,E,D*39
$IMU_ACC,-0.07,-0.02,1.09,*
$IMU_GYRO,0.31,-10.44,9.03,*
$IMU_ANGLE,-2.62,-3.99,-91.31,*
$IMU_MAG,-10303,-1017,-415,*
$LEMCA,ERRROR,0.00,m,26.00,°
$GPGGA,142121.90,4937.6017194,N,401.3341048,E,4,20,0.8,135.015,M,45.60,M,01,0141*57
$GPRMC,142121.90,A,4937.6017273,N,00401.3339359,E,2.339,245.8,191122,0.0,E,D*3B
$IMU_ACC,-0.10,0.08,1.11,*
$IMU_GYRO,1.95,-9.58,21.79,*
$IMU_ANGLE,-2.36,-4.67,-89.82,*
$IMU_MAG,-10388,-1128,-403,*
$LEMCA,ERRROR,0.00,m,29.00,°
$JD_CAP_V,218.22,1108,*
$JD_IMU,-5.05,-2.29,*
$JD_POS,49.63,4.02,*
$GPGGA,142122.00,4937.6016841,N,401.3340417,E,4,20,0.8,135.032,M,45.60,M,01,0141*57
$GPRMC,142122.00,A,4937.6016983,N,00401.3338535,E,2.193,241.6,191122,0.0,E,D*31
$IMU_ACC,0.00,0.07,0.96,*
$IMU_GYRO,-5.31,-5.92,4.39,*
$IMU_ANGLE,-2.38,-5.23,-88.68,*
$IMU_MAG,-10563,-1240,-421,*
$LEMCA,ERRROR,0.01,m,23.00,°
$GPGGA,142122.10,4937.6016520,N,401.3339809,E,4,20,0.8,135.043,M,45.60,M,01,0141*57
$GPRMC,142122.10,A,4937.6016742,N,00401.3337813,E,1.900,242.8,191122,0.0,E,D*39
$IMU_ACC,0.08,0.01,0.84,*
$IMU_GYRO,-13.12,3.11,-3.23,*
$IMU_ANGLE,-3.13,-5.24,-89.07,*
$IMU_MAG,-10511,-1265,-429,*
$LEMCA,ERRROR,0.02,m,23.00,°
$JD_CAP_V,220.47,900,*
$JD_IMU,-4.91,-3.88,*
$JD_POS,49.63,4.02,*
$GPGGA,142122.20,4937.6016070,N,401.3339014,E,4,20,0.8,135.034,M,45.60,M,01,0141*50
$GPRMC,142122.20,A,4937.6016434,N,00401.3337053,E,2.097,238.0,191122,0.0,E,D*35
$IMU_ACC,0.06,-0.03,0.86,*
$IMU_GYRO,-13.24,10.99,-8.24,*
$IMU_ANGLE,-4.30,-4.63,-90.18,*
$IMU_MAG,-10432,-1210,-393,*
$LEMCA,ERRROR,0.01,m,16.00,°
$GPGGA,142122.30,4937.6015696,N,401.3338052,E,4,20,0.8,135.008,M,45.60,M,01,0141*50
$GPRMC,142122.30,A,4937.6016163,N,00401.3336259,E,2.100,242.3,191122,0.0,E,D*3B
$IMU_ACC,0.01,-0.07,0.97,*
$IMU_GYRO,-5.25,12.57,-12.63,*
$IMU_ANGLE,-5.20,-3.66,-91.65,*
$IMU_MAG,-10346,-1275,-399,*
$LEMCA,ERRROR,0.01,m,18.00,°
$JD_CAP_V,224.34,995,*
$JD_IMU,-3.11,-5.29,*
$JD_POS,49.63,4.02,*
$GPGGA,142122.40,4937.6015387,N,401.3336970,E,4,20,0.8,134.962,M,45.60,M,00,0141*50
$GPRMC,142122.40,A,4937.6015897,N,00401.3335483,E,2.105,241.8,191122,0.0,E,D*32
$IMU_ACC,0.00,-0.09,1.09,*
$IMU_GYRO,6.84,7.51,-21.00,*
$IMU_ANGLE,-5.16,-2.88,-93.62,*
$IMU_MAG,-10484,-1164,-430,*
$LEMCA,ERRROR,0.01,m,15.00,°
$GPGGA,142122.50,4937.6015227,N,401.3335880,E,4,20,0.8,134.952,M,45.60,M,01,0141*55
$GPRMC,142122.50,A,4937.6015632,N,00401.3334649,E,2.174,243.9,191122,0.0,E,D*32
$IMU_ACC,0.00,-0.08,1.07,*
$IMU_GYRO,13.67,2.75,-13.49,*
$IMU_ANGLE,-4.20,-2.53,-95.70,*
$IMU_MAG,-10488,-1230,-411,*
$LEMCA,ERRROR,0.01,m,15.00,°
$JD_CAP_V,229.33,1030,*
$JD_IMU,-2.37,-3.21,*
$JD_POS,49.63,4.02,*
$GPGGA,142122.60,4937.6015129,N,401.3334841,E,4,20,0.8,134.947,M,45.60,M,01,0141*53
$GPRMC,142122.60,A,4937.6015369,N,00401.3333780,E,2.242,245.1,191122,0.0,E,D*31
$IMU_ACC,0.02,-0.01,0.96,*
$IMU_GYRO,19.10,4.94,2.01,*
$IMU_ANGLE,-2.68,-2.26,-96.24,*
$IMU_MAG,-10562,-1273,-407,*
$LEMCA,ERRROR,0.00,m,15.00,°
$GPGGA,142122.70,4937.6015000,N,401.3333901,E,4,20,0.8,134.938,M,45.60,M,01,0141*52
$GPRMC,142122.70,A,4937.6015115,N,00401.3332884,E,2.289,246.4,191122,0.0,E,D*32
$IMU_ACC,0.01,0.02,0.86,*
$IMU_GYRO,15.38,2.62,6.90,*
$IMU_ANGLE,-0.90,-1.93,-95.68,*
$IMU_MAG,-10599,-1101,-415,*
$LEMCA,ERRROR,0.00,m,17.00,°
$JD_CAP_V,230.09,1085,*
$JD_IMU,-1.97,-0.07,*
$JD_POS,49.63,4.02,*
$GPGGA,142122.80,4937.6014751,N,401.3333069,E,4,20,0.8,134.916,M,45.60,M,01,0141*54
$GPRMC,142122.80,A,4937.6014835,N,00401.3331999,E,2.304,244.1,191122,0.0,E,D*3A
$IMU_ACC,-0.03,0.04,0.93,*
$IMU_GYRO,9.28,-3.60,-0.37,*
$IMU_ANGLE,0.26,-2.08,-95.43,*
$IMU_MAG,-10398,-1391,-392,*
$LEMCA,ERRROR,0.00,m,13.00,°
$GPGGA,142122.90,4937.6014391,N,401.3332396,E,4,20,0.8,134.897,M,45.60,M,01,0141*57
$GPRMC,142122.90,A,4937.6014550,N,00401.3331158,E,2.221,242.4,191122,0.0,E,D*35
$IMU_ACC,-0.03,0.02,1.00,*
$IMU_GYRO,4.03,-12.33,-6.53,*
$IMU_ANGLE,0.85,-2.79,-95.77,*
$IMU_MAG,-10317,-1187,-402,*
$LEMCA,ERRROR,0.00,m,10.00,°
$JD_CAP_V,232.03,1053,*
$JD_IMU,-3.69,1.14,*
$JD_POS,49.63,4.02,*
$GPGGA,142123.00,4937.6014058,N,401.3331706,E,4,20,0.8,134.867,M,45.60,M,01,0141*58
$GPRMC,142123.00,A,4937.6014303,N,00401.3330296,E,2.205,246.1,191122,0.0,E,D*3A
$IMU_ACC,0.08,0.03,1.00,*
$IMU_GYRO,7.51,-15.26,-20.81,*
$IMU_ANGLE,1.38,-4.25,-97.31,*
$IMU_MAG,-10328,-1387,-418,*
$LEMCA,ERRROR,0.00,m,11.00,°
$GPGGA,142123.10,4937.6013559,N,401.3330834,E,4,21,0.8,134.852,M,45.60,M,01,0141*52
$GPRMC,142123.10,A,4937.6014031,N,00401.3329365,E,2.389,245.8,191122,0.0,E,D*33
$IMU_ACC,0.08,0.13,0.97,*
$IMU_GYRO,10.99,-7.57,-25.82,*
$IMU_ANGLE,2.34,-5.27,-99.74,*
$IMU_MAG,-10692,-1381,-418,*
$LEMCA,ERRROR,0.01,m,8.00,°
$JD_CAP_V,237.91,1132,*
$JD_IMU,-5.56,3.02,*
$JD_POS,49.63,4.02,*
$GPGGA,142123.20,4937.6012966,N,401.3329809,E,4,21,0.8,134.819,M,45.60,M,01,0141*59
$GPRMC,142123.20,A,4937.6013739,N,00401.3328383,E,2.529,245.4,191122,0.0,E,D*31
$IMU_ACC,0.10,0.19,0.86,*
$IMU_GYRO,0.00,1.46,-16.11,*
$IMU_ANGLE,3.24,-5.59,-101.69,*
$IMU_MAG,-10575,-1034,-407,*
$LEMCA,ERRROR,0.01,m,5.00,°
$GPGGA,142123.30,4937.6012188,N,401.3328745,E,4,21,0.8,134.781,M,45.60,M,01,0141*58
$GPRMC,142123.30,A,4937.6013311,N,00401.3327455,E,2.664,234.6,191122,0.0,E,D*33
$IMU_ACC,0.02,0.15,0.97,*
$IMU_GYRO,-11.60,2.14,-17.27,*
$IMU_ANGLE,2.98,-5.42,-102.82,*
$IMU_MAG,-10461,-989,-409,*
$LEMCA,ERRROR,0.02,m,7.00,°
$JD_CAP_V,241.42,1263,*
$JD_IMU,-5.38,2.32,*
$JD_POS,49.63,4.02,*
$GPGGA,142123.40,4937.6011540,N,401.3327884,E,4,21,0.8,134.747,M,45.60,M,00,0141*5A
$GPRMC,142123.40,A,4937.6012901,N,00401.3326512,E,2.588,235.9,191122,0.0,E,D*32
$IMU_ACC,-0.06,-0.08,1.29,*
$IMU_GYRO,-6.71,-6.65,-23.50,*
$IMU_ANGLE,1.99,-5.45,-104.35,*
$IMU_MAG,-10644,-1076,-412,*
$LEMCA,ERRROR,0.02,m,7.00,°
$GPGGA,142123.50,4937.6011093,N,401.3327041,E,4,21,0.8,134.733,M,45.60,M,01,0141*53
$GPRMC,142123.50,A,4937.6012523,N,00401.3325601,E,2.531,237.4,191122,0.0,E,D*30
$IMU_ACC,0.11,-0.07,1.27,*
$IMU_GYRO,8.24,-10.38,-36.87,*
$IMU_ANGLE,1.96,-6.20,-107.11,*
$IMU_MAG,-10525,-1113,-417,*
$LEMCA,ERRROR,0.01,m,9.00,°
$JD_CAP_V,246.38,1199,*
$JD_IMU,-6.45,2.47,*
$JD_POS,49.63,4.02,*
$GPGGA,142123.60,4937.6010756,N,401.3326014,E,4,21,0.8,134.741,M,45.60,M,01,0141*5B
$GPRMC,142123.60,A,4937.6012223,N,00401.3324567,E,2.652,245.9,191122,0.0,E,D*38
$IMU_ACC,0.10,0.14,0.91,*
$IMU_GYRO,7.20,-0.12,-21.48,*
$IMU_ANGLE,2.76,-6.46,-109.54,*
$IMU_MAG,-10561,-1248,-411,*
$LEMCA,ERRROR,0.02,m,2.00,°
$GPGGA,142123.70,4937.6010333,N,401.3324744,E,4,21,0.8,134.749,M,45.60,M,01,0141*55
$GPRMC,142123.70,A,4937.6011840,N,00401.3323482,E,2.890,241.5,191122,0.0,E,D*30
$IMU_ACC,0.09,0.07,0.77,*
$IMU_GYRO,-1.22,2.50,-7.08,*
$IMU_ANGLE,3.10,-6.22,-110.16,*
$IMU_MAG,-10522,-973,-418,*
$LEMCA,ERRROR,0.03,m,7.00,°
$JD_CAP_V,248.73,1370,*
$JD_IMU,-6.27,2.91,*
$JD_POS,49.63,4.02,*
$GPGGA,142123.80,4937.6009959,N,401.3323631,E,4,21,0.8,134.721,M,45.60,M,01,0141*5E
$GPRMC,142123.80,A,4937.6011434,N,00401.3322450,E,2.823,238.8,191122,0.0,E,D*35
$IMU_ACC,-0.03,0.00,1.00,*
$IMU_GYRO,-5.74,-9.77,-1.46,*
$IMU_ANGLE,2.69,-6.50,-109.75,*
$IMU_MAG,-10510,-1099,-414,*
$LEMCA,ERRROR,0.02,m,10.00,°
$GPGGA,142123.90,4937.6009691,N,401.3322574,E,4,21,0.8,134.695,M,45.60,M,01,0141*59
$GPRMC,142123.90,A,4937.6011078,N,00401.3321421,E,2.728,242.0,191122,0.0,E,D*3C
$IMU_ACC,-0.05,0.01,1.19,*
$IMU_GYRO,8.42,-9.58,15.50,*
$IMU_ANGLE,2.41,-7.55,-108.37,*
$IMU_MAG,-10409,-968,-401,*
$LEMCA,ERRROR,0.02,m,4.00,°
$JD_CAP_V,246.58,1293,*
$JD_IMU,-8.11,2.76,*
$JD_POS,49.63,4.02,*
$GPGGA,142124.00,4937.6009494,N,401.3321661,E,4,21,0.8,134.692,M,45.60,M,01,0141*53
$GPRMC,142124.00,A,4937.6010793,N,00401.3320427,E,2.544,246.2,191122,0.0,E,D*38
$IMU_ACC,0.02,0.06,1.07,*
$IMU_GYRO,11.60,-5.86,15.26,*
$IMU_ANGLE,3.07,-8.33,-105.99,*
$IMU_MAG,-10410,-1110,-404,*
$LEMCA,ERRROR,0.01,m,1.00,°
$GPGGA,142124.10,4937.6009272,N,401.3320723,E,4,21,0.8,134.708,M,45.60,M,01,0141*58
$GPRMC,142124.10,A,4937.6010511,N,00401.3319467,E,2.466,245.6,191122,0.0,E,D*39
$IMU_ACC,0.08,0.10,0.85,*
$IMU_GYRO,6.65,1.10,3.85,*
$IMU_ANGLE,3.74,-8.36,-104.61,*
$IMU_MAG,-10318,-1274,-393,*
$LEMCA,ERRROR,0.00,m,0.00,°
$JD_CAP_V,244.77,1169,*
$JD_IMU,-8.07,3.68,*
$JD_POS,49.63,4.02,*
$GPGGA,142124.20,4937.6008933,N,401.3319713,E,4,21,0.8,134.709,M,45.60,M,01,0141*5C
$GPRMC,142124.20,A,4937.6010176,N,00401.3318494,E,2.577,242.1,191122,0.0,E,D*33
$IMU_ACC,0.13,0.06,0.79,*
$IMU_GYRO,-7.26,6.04,-13.85,*
$IMU_ANGLE,3.47,-7.85,-104.72,*
$IMU_MAG,-10294,-1248,-400,*
$LEMCA,ERRROR,0.01,m,4.00,°
$GPGGA,142124.30,4937.6008453,N,401.3318680,E,4,21,0.8,134.684,M,45.60,M,01,0141*58
$GPRMC,142124.30,A,4937.6009853,N,00401.3317486,E,2.631,243.7,191122,0.0,E,D*3E
$IMU_ACC,0.12,0.04,0.93,*
$IMU_GYRO,-15.63,7.14,-27.95,*
$IMU_ANGLE,2.37,-7.09,-106.47,*
$IMU_MAG,-10350,-1100,-396,*
$LEMCA,ERRROR,0.01,m,5.00,°
$JD_CAP_V,248.49,1247,*
$JD_IMU,-6.57,1.49,*
$JD_POS,49.63,4.02,*
$GPGGA,142124.40,4937.6007951,N,401.3317400,E,4,21,0.8,134.659,M,45.60,M,01,0141*5A
$GPRMC,142124.40,A,4937.6009514,N,00401.3316432,E,2.753,243.7,191122,0.0,E,D*3C
$IMU_ACC,0.08,-0.09,1.22,*
$IMU_GYRO,-10.50,7.81,-33.57,*
$IMU_ANGLE,1.10,-6.28,-108.82,*
$IMU_MAG,-10776,-1050,-429,*
$LEMCA,ERRROR,0.02,m,8.00,°
$GPGGA,142124.50,4937.6007626,N,401.3316132,E,4,21,0.7,134.652,M,45.60,M,01,0141*55
$GPRMC,142124.50,A,4937.6009215,N,00401.3315341,E,2.781,245.2,191122,0.0,E,D*37
$IMU_ACC,0.06,-0.01,1.12,*
$IMU_GYRO,1.34,2.81,-32.04,*
$IMU_ANGLE,0.65,-5.70,-111.87,*
$IMU_MAG,-10688,-1209,-424,*
$LEMCA,ERRROR,0.02,m,9.00,°
$JD_CAP_V,254.47,1318,*
$JD_IMU,-5.40,0.74,*
$JD_POS,49.63,4.02,*
$GPGGA,142124.60,4937.6007495,N,401.3314913,E,4,21,0.7,134.671,M,45.60,M,01,0141*54
$GPRMC,142124.60,A,4937.6008960,N,00401.3314245,E,2.725,250.4,191122,0.0,E,D*34
$IMU_ACC,0.00,0.06,0.95,*
$IMU_GYRO,4.21,5.86,1.28,*
$IMU_ANGLE,0.82,-5.22,-112.45,*
$IMU_MAG,-10479,-1305,-419,*
$LEMCA,ERRROR,0.01,m,3.00,°
$GPGGA,142124.70,4937.6007371,N,401.3313736,E,4,21,0.7,134.672,M,45.60,M,01,0141*55
$GPRMC,142124.70,A,4937.6008652,N,00401.3313163,E,2.766,246.3,191122,0.0,E,D*3C
$IMU_ACC,0.04,0.00,0.78,*
$IMU_GYRO,3.11,2.87,7.57,*
$IMU_ANGLE,1.09,-4.82,-110.97,*
$IMU_MAG,-10575,-1129,-415,*
$LEMCA,ERRROR,0.01,m,7.00,°
$JD_CAP_V,253.04,1311,*
$JD_IMU,-4.95,1.12,*
$JD_POS,49.63,4.02,*
$GPGGA,142124.80,4937.6007257,N,401.3312795,E,4,21,0.7,134.655,M,45.60,M,01,0141*52
$GPRMC,142124.80,A,4937.6008362,N,00401.3312090,E,2.720,247.4,191122,0.0,E,D*3D
$IMU_ACC,-0.00,-0.05,0.92,*
$IMU_GYRO,1.71,-7.26,2.20,*
$IMU_ANGLE,1.10,-5.15,-109.70,*
$IMU_MAG,-10336,-1147,-413,*
$LEMCA,ERRROR,0.01,m,5.00,°
$GPGGA,142124.90,4937.6007131,N,401.3311840,E,4,21,0.7,134.633,M,45.60,M,01,0141*54
$GPRMC,142124.90,A,4937.6008099,N,00401.3311025,E,2.668,249.2,191122,0.0,E,D*33
$IMU_ACC,0.02,-0.04,1.16,*
$IMU_GYRO,10.74,-12.27,1.46,*
$IMU_ANGLE,1.47,-6.20,-108.93,*
$IMU_MAG,-10299,-1124,-404,*
$LEMCA,ERRROR,0.01,m,3.00,°
$JD_CAP_V,252.24,1264,*
$JD_IMU,-6.87,2.31,*
$JD_POS,49.63,4.02,*
$GPGGA,142125.00,4937.6007003,N,401.3310810,E,4,21,0.7,134.623,M,45.60,M,01,0141*59
$GPRMC,142125.00,A,4937.6007875,N,00401.3309913,E,2.725,252.8,191122,0.0,E,D*33
$IMU_ACC,0.01,0.08,1.14,*
$IMU_GYRO,18.13,-9.95,0.43,*
$IMU_ANGLE,2.86,-7.15,-107.97,*
$IMU_MAG,-10284,-1131,-403,*
$LEMCA,ERRROR,0.01,m,0.00,°
$GPGGA,142125.10,4937.6006839,N,401.3309790,E,4,21,0.7,134.636,M,45.60,M,01,0141*53
$GPRMC,142125.10,A,4937.6007667,N,00401.3308853,E,2.590,253.2,191122,0.0,E,D*3C
$IMU_ACC,0.03,0.12,0.94,*
$IMU_GYRO,9.95,-3.30,15.56,*
$IMU_ANGLE,4.12,-7.60,-106.55,*
$IMU_MAG,-10358,-854,-360,*
$LEMCA,ERRROR,0.00,m,2.00,°
$JD_CAP_V,250.80,1227,*
$JD_IMU,-7.73,4.24,*
$JD_POS,49.63,4.02,*
$GPGGA,142125.20,4937.6006458,N,401.3308788,E,4,21,0.7,134.633,M,45.60,M,01,0141*56
$GPRMC,142125.20,A,4937.6007398,N,00401.3307838,E,2.567,247.8,191122,0.0,E,D*3F
$IMU_ACC,0.11,0.08,0.82,*
$IMU_GYRO,-4.03,0.92,7.32,*
$IMU_ANGLE,4.09,-7.72,-104.73,*
$IMU_MAG,-10471,-1099,-393,*
$LEMCA,ERRROR,0.00,m,2.00,°
$GPGGA,142125.30,4937.6005949,N,401.3307792,E,4,21,0.7,134.626,M,45.60,M,01,0141*59
$GPRMC,142125.30,A,4937.6007122,N,00401.3306791,E,2.646,247.9,191122,0.0,E,D*31
$IMU_ACC,0.09,0.08,0.92,*
$IMU_GYRO,-15.56,1.89,-11.90,*
$IMU_ANGLE,3.00,-7.56,-104.57,*
$IMU_MAG,-10421,-1025,-417,*
$LEMCA,ERRROR,0.01,m,3.00,°
$JD_CAP_V,250.98,1254,*
$JD_IMU,-7.34,2.07,*
$JD_POS,49.63,4.02,*
$GPGGA,142125.40,4937.6005433,N,401.3306670,E,4,21,0.7,134.605,M,45.60,M,00,0141*52
$GPRMC,142125.40,A,4937.6006825,N,00401.3305654,E,2.780,247.9,191122,0.0,E,D*39
$IMU_ACC,0.06,-0.00,1.18,*
$IMU_GYRO,-13.43,3.66,-29.30,*
$IMU_ANGLE,1.63,-7.17,-106.19,*
$IMU_MAG,-10265,-1186,-432,*
$LEMCA,ERRROR,0.02,m,6.00,°
$GPGGA,142125.50,4937.6005010,N,401.3305371,E,4,21,0.7,134.599,M,45.60,M,01,0141*56
$GPRMC,142125.50,A,4937.6006550,N,00401.3304532,E,2.807,249.3,191122,0.0,E,D*31
$IMU_ACC,0.08,0.07,1.11,*
$IMU_GYRO,-6.77,3.97,-35.83,*
$IMU_ANGLE,0.85,-6.59,-109.38,*
$IMU_MAG,-10274,-1090,-407,*
$LEMCA,ERRROR,0.01,m,7.00,°
$JD_CAP_V,256.80,1330,*
$JD_IMU,-6.04,0.72,*
$JD_POS,49.63,4.02,*
$GPGGA,142125.60,4937.6004790,N,401.3304043,E,4,21,0.7,134.613,M,45.60,M,01,0141*59
$GPRMC,142125.60,A,4937.6006299,N,00401.3303407,E,2.785,251.0,191122,0.0,E,D*3F
$IMU_ACC,0.03,-0.02,0.94,*
$IMU_GYRO,7.14,13.73,13.37,*
$IMU_ANGLE,0.86,-5.61,-109.32,*
$IMU_MAG,-10417,-1106,-414,*
$LEMCA,ERRROR,0.01,m,4.00,°
$GPGGA,142125.70,4937.6004687,N,401.3302737,E,4,21,0.7,134.608,M,45.60,M,01,0141*57
$GPRMC,142125.70,A,4937.6006061,N,00401.3302248,E,2.845,252.5,191122,0.0,E,D*32
$IMU_ACC,0.03,-0.04,0.76,*
$IMU_GYRO,8.00,8.97,12.82,*
$IMU_ANGLE,1.48,-4.58,-106.99,*
$IMU_MAG,-10502,-1298,-427,*
$LEMCA,ERRROR,0.01,m,1.00,°
$JD_CAP_V,253.88,1348,*
$JD_IMU,-4.42,1.87,*
$JD_POS,49.63,4.02,*
$GPGGA,142125.80,4937.6004654,N,401.3301534,E,4,21,0.7,134.582,M,45.60,M,01,0141*55
$GPRMC,142125.80,A,4937.6005857,N,00401.3301066,E,2.863,255.1,191122,0.0,E,D*39
$IMU_ACC,-0.03,-0.05,0.99,*
$IMU_GYRO,9.70,-3.60,6.84,*
$IMU_ANGLE,2.09,-4.52,-105.54,*
$IMU_MAG,-10723,-1352,-417,*
$LEMCA,ERRROR,0.01,m,1.00,°
$GPGGA,142125.90,4937.6004733,N,401.3300590,E,4,21,0.7,134.559,M,45.60,M,01,0141*5D
$GPRMC,142125.90,A,4937.6005731,N,00401.3299966,E,2.614,260.0,191122,0.0,E,D*37
$IMU_ACC,-0.01,0.03,1.17,*
$IMU_GYRO,16.05,-18.07,14.34,*
$IMU_ANGLE,3.11,-5.62,-103.88,*
$IMU_MAG,-10512,-1262,-417,*
$LEMCA,ERRROR,0.00,m,8.00,°
$JD_CAP_V,252.27,1239,*
$JD_IMU,-6.75,3.81,*
$JD_POS,49.63,4.02,*
$GPGGA,142126.00,4937.6004587,N,401.3299641,E,4,21,0.7,134.555,M,45.60,M,01,0141*58
$GPRMC,142126.00,A,4937.6005606,N,00401.3298874,E,2.595,260.0,191122,0.0,E,D*31
$IMU_ACC,0.07,0.19,1.12,*
$IMU_GYRO,4.39,-18.62,0.37,*
$IMU_ANGLE,4.03,-7.42,-102.87,*
$IMU_MAG,-10378,-1112,-411,*
$LEMCA,ERRROR,0.00,m,7.00,°
$GPGGA,142126.10,4937.6004297,N,401.3298662,E,4,22,0.7,134.568,M,45.60,M,01,0141*52
$GPRMC,142126.10,A,4937.6005441,N,00401.3297784,E,2.622,256.9,191122,0.0,E,D*3D
$IMU_ACC,0.10,0.09,0.95,*
$IMU_GYRO,-7.57,-11.60,-1.40,*
$IMU_ANGLE,3.74,-8.68,-102.88,*
$IMU_MAG,-10372,-1267,-411,*
$LEMCA,ERRROR,0.00,m,4.00,°
$JD_CAP_V,252.97,1243,*
$JD_IMU,-9.14,3.16,*
$JD_POS,49.63,4.02,*
$GPGGA,142126.20,4937.6003932,N,401.3297550,E,4,22,0.7,134.582,M,45.60,M,01,0141*5B
$GPRMC,142126.20,A,4937.6005252,N,00401.3296679,E,2.673,255.3,191122,0.0,E,D*35
$IMU_ACC,0.16,0.03,0.74,*
$IMU_GYRO,-15.56,-3.42,-9.95,*
$IMU_ANGLE,2.69,-9.27,-102.99,*
$IMU_MAG,-10503,-1143,-419,*
$LEMCA,ERRROR,0.00,m,1.00,°
$GPGGA,142126.30,4937.6003444,N,401.3296114,E,4,22,0.7,134.572,M,45.60,M,01,0141*5C
$GPRMC,142126.30,A,4937.6005045,N,00401.3295499,E,2.863,254.8,191122,0.0,E,D*3A
$IMU_ACC,0.12,0.05,0.86,*
$IMU_GYRO,-23.01,-0.67,-26.67,*
$IMU_ANGLE,0.97,-9.50,-104.53,*
$IMU_MAG,-10285,-1044,-412,*
$LEMCA,ERRROR,0.01,m,1.00,°
$JD_CAP_V,256.60,1357,*
$JD_IMU,-9.54,-0.27,*
$JD_POS,49.63,4.02,*
$GPGGA,142126.40,4937.6003106,N,401.3294523,E,4,22,0.7,134.561,M,45.60,M,00,0141*59
$GPRMC,142126.40,A,4937.6004873,N,00401.3294315,E,2.869,257.0,191122,0.0,E,D*32
$IMU_ACC,0.04,-0.00,1.26,*
$IMU_GYRO,-18.31,5.49,-26.61,*
$IMU_ANGLE,-0.84,-9.40,-106.99,*
$IMU_MAG,-10637,-1215,-408,*
$LEMCA,ERRROR,0.01,m,2.00,°
$GPGGA,142126.50,4937.6003083,N,401.3292904,E,4,22,0.7,134.555,M,45.60,M,01,0141*5D
$GPRMC,142126.50,A,4937.6004700,N,00401.3293081,E,2.957,257.8,191122,0.0,E,D*35
$IMU_ACC,-0.00,-0.15,1.17,*
$IMU_GYRO,1.77,14.89,10.68,*
$IMU_ANGLE,-1.70,-8.15,-106.62,*
$IMU_MAG,-10338,-1070,-403,*
$LEMCA,ERRROR,0.02,m,0.00,°
$JD_CAP_V,258.07,1401,*
$JD_IMU,-7.09,-1.41,*
$JD_POS,49.63,4.02,*
$GPGGA,142126.60,4937.6003319,N,401.3291515,E,4,22,0.7,134.570,M,45.60,M,01,0141*56
$GPRMC,142126.60,A,4937.6004626,N,00401.3291882,E,2.818,264.6,191122,0.0,E,D*3E
$IMU_ACC,0.05,-0.07,0.91,*
$IMU_GYRO,13.43,13.92,5.07,*
$IMU_ANGLE,-1.08,-6.64,-104.99,*
$IMU_MAG,-10380,-1132,-419,*
$LEMCA,ERRROR,0.01,m,7.00,°
$GPGGA,142126.70,4937.6003682,N,401.3290280,E,4,22,0.7,134.575,M,45.60,M,01,0141*5F
$GPRMC,142126.70,A,4937.6004614,N,00401.3290688,E,2.794,269.1,191122,0.0,E,D*3A
$IMU_ACC,-0.02,-0.07,0.79,*
$IMU_GYRO,10.50,0.73,-12.76,*
$IMU_ANGLE,-0.31,-5.75,-105.05,*
$IMU_MAG,-10667,-1327,-425,*
$LEMCA,ERRROR,0.01,m,9.00,°
$JD_CAP_V,259.68,1324,*
$JD_IMU,-5.95,0.09,*
$JD_POS,49.63,4.02,*
$GPGGA,142126.80,4937.6004019,N,401.3289204,E,4,22,0.7,134.560,M,45.60,M,01,0141*53
$GPRMC,142126.80,A,4937.6004623,N,00401.3289551,E,2.663,270.7,191122,0.0,E,D*39
$IMU_ACC,-0.02,0.02,0.97,*
$IMU_GYRO,3.78,-13.61,-15.32,*
$IMU_ANGLE,0.17,-6.24,-106.14,*
$IMU_MAG,-10201,-1291,-408,*
$LEMCA,ERRROR,0.00,m,9.00,°
$GPGGA,142126.90,4937.6004214,N,401.3288392,E,4,22,0.7,134.542,M,45.60,M,01,0141*52
$GPRMC,142126.90,A,4937.6004664,N,00401.3288459,E,2.559,273.4,191122,0.0,E,D*39
$IMU_ACC,0.07,-0.02,1.17,*
$IMU_GYRO,-4.39,-22.89,-15.08,*
$IMU_ANGLE,-0.02,-7.89,-107.13,*
$IMU_MAG,-10705,-1075,-409,*
$LEMCA,ERRROR,0.01,m,10.00,°
$JD_CAP_V,263.71,1213,*
$JD_IMU,-9.18,-0.43,*
$JD_POS,49.63,4.02,*
$GPGGA,142127.00,4937.6004285,N,401.3287429,E,4,22,0.7,134.536,M,45.60,M,01,0141*59
$GPRMC,142127.00,A,4937.6004723,N,00401.3287373,E,2.552,274.8,191122,0.0,E,D*33
$IMU_ACC,0.13,0.04,1.10,*
$IMU_GYRO,-7.93,-12.39,-8.48,*
$IMU_ANGLE,-0.69,-9.63,-107.70,*
$IMU_MAG,-10527,-997,-417,*
$LEMCA,ERRROR,0.01,m,10.00,°
$GPGGA,142127.10,4937.6004333,N,401.3286181,E,4,22,0.7,134.552,M,45.60,M,01,0141*50
$GPRMC,142127.10,A,4937.6004787,N,00401.3286219,E,2.711,274.9,191122,0.0,E,D*34
$IMU_ACC,0.14,-0.07,0.91,*
$IMU_GYRO,-7.63,4.39,-11.47,*
$IMU_ANGLE,-1.52,-9.88,-107.90,*
$IMU_MAG,-11354,-1389,-419,*
$LEMCA,ERRROR,0.00,m,8.00,°
$JD_CAP_V,266.65,1285,*
$JD_IMU,-9.39,-1.88,*
$JD_POS,49.63,4.02,*
$GPGGA,142127.20,4937.6004441,N,401.3284750,E,4,22,0.7,134.559,M,45.60,M,01,0141*52
$GPRMC,142127.20,A,4937.6004867,N,00401.3285044,E,2.765,276.0,191122,0.0,E,D*37
$IMU_ACC,0.10,-0.10,0.78,*
$IMU_GYRO,-3.17,10.56,-29.42,*
$IMU_ANGLE,-1.98,-9.06,-109.25,*
$IMU_MAG,-10315,-1140,-400,*
$LEMCA,ERRROR,0.01,m,6.00,°
$GPGGA,142127.30,4937.6004653,N,401.3283234,E,4,22,0.7,134.539,M,45.60,M,01,0141*54
$GPRMC,142127.30,A,4937.6005010,N,00401.3283868,E,2.801,280.6,191122,0.0,E,D*3D
$IMU_ACC,0.08,-0.06,0.90,*
$IMU_GYRO,-0.24,6.96,-46.75,*
$IMU_ANGLE,-2.02,-8.35,-112.45,*
$IMU_MAG,-10470,-1219,-412,*
$LEMCA,ERRROR,0.01,m,6.00,°
$JD_CAP_V,274.89,1327,*
$JD_IMU,-8.08,-1.93,*
$JD_POS,49.63,4.02,*
$GPGGA,142127.40,4937.6004895,N,401.3281809,E,4,22,0.7,134.509,M,45.60,M,01,0141*52
$GPRMC,142127.40,A,4937.6005148,N,00401.3282695,E,2.791,280.3,191122,0.0,E,D*38
$IMU_ACC,0.07,-0.11,1.19,*
$IMU_GYRO,2.20,2.62,-49.44,*
$IMU_ANGLE,-1.82,-8.01,-116.54,*
$IMU_MAG,-10680,-1090,-413,*
$LEMCA,ERRROR,0.01,m,0.00,°
$GPGGA,142127.50,4937.6005205,N,401.3280666,E,4,22,0.6,134.498,M,45.60,M,01,0141*5F
$GPRMC,142127.50,A,4937.6005332,N,00401.3281499,E,2.899,283.8,191122,0.0,E,D*34
$IMU_ACC,0.00,-0.00,1.20,*
$IMU_GYRO,9.70,4.15,-24.35,*
$IMU_ANGLE,-1.07,-7.60,-119.32,*
$IMU_MAG,-10413,-1021,-409,*
$LEMCA,ERRROR,0.01,m,1.00,°
$JD_CAP_V,282.37,1374,*
$JD_IMU,-7.08,-0.44,*
$JD_POS,49.63,4.02,*
$GPGGA,142127.60,4937.6005500,N,401.3279628,E,4,22,0.6,134.515,M,45.60,M,01,0141*56
$GPRMC,142127.60,A,4937.6005516,N,00401.3280367,E,2.731,284.1,191122,0.0,E,D*33
$IMU_ACC,0.04,-0.07,1.00,*
$IMU_GYRO,11.05,7.75,-14.95,*
$IMU_ANGLE,-0.12,-6.77,-119.16,*
$IMU_MAG,-10444,-1071,-402,*
$LEMCA,ERRROR,0.00,m,0.00,°
$GPGGA,142127.70,4937.6005793,N,401.3278773,E,4,22,0.6,134.527,M,45.60,M,01,0141*50
$GPRMC,142127.70,A,4937.6005776,N,00401.3279249,E,2.779,289.7,191122,0.0,E,D*3A
$IMU_ACC,-0.01,-0.09,0.81,*
$IMU_GYRO,10.25,-1.04,-30.46,*
$IMU_ANGLE,0.64,-6.20,-120.22,*
$IMU_MAG,-10472,-1085,-408,*
$LEMCA,ERRROR,0.00,m,2.00,°
$JD_CAP_V,287.06,1317,*
$JD_IMU,-6.38,1.16,*
$JD_POS,49.63,4.02,*
$GPGGA,142127.80,4937.6006054,N,401.3278043,E,4,22,0.6,134.516,M,45.60,M,01,0141*56
$GPRMC,142127.80,A,4937.6006014,N,00401.3278192,E,2.619,289.1,191122,0.0,E,D*30
$IMU_ACC,0.03,-0.00,0.92,*
$IMU_GYRO,11.60,-11.17,-26.37,*
$IMU_ANGLE,1.47,-6.65,-121.82,*
$IMU_MAG,-10624,-1075,-431,*
$LEMCA,ERRROR,0.00,m,-1.00,°
$GPGGA,142127.90,4937.6006307,N,401.3277171,E,4,22,0.6,134.504,M,45.60,M,01,0141*5E
$GPRMC,142127.90,A,4937.6006322,N,00401.3277165,E,2.647,294.8,191122,0.0,E,D*3E
$IMU_ACC,0.06,0.05,1.19,*
$IMU_GYRO,2.81,-12.57,-14.22,*
$IMU_ANGLE,2.04,-7.86,-122.36,*
$IMU_MAG,-10381,-902,-419,*
$LEMCA,ERRROR,0.00,m,3.00,°
$JD_CAP_V,291.27,1254,*
$JD_IMU,-8.38,2.01,*
$JD_POS,49.63,4.02,*
$GPGGA,142128.00,4937.6006462,N,401.3276200,E,4,21,0.6,134.509,M,45.60,M,01,0141*56
$GPRMC,142128.00,A,4937.6006598,N,00401.3276144,E,2.590,292.6,191122,0.0,E,D*3C
$IMU_ACC,-0.00,0.02,1.13,*
$IMU_GYRO,-6.04,-6.29,-8.67,*
$IMU_ANGLE,1.80,-8.55,-121.79,*
$IMU_MAG,-10491,-905,-419,*
$LEMCA,ERRROR,0.01,m,0.00,°
$GPGGA,142128.10,4937.6006610,N,401.3275168,E,4,21,0.6,134.531,M,45.60,M,01,0141*55
$GPRMC,142128.10,A,4937.6006867,N,00401.3275134,E,2.554,292.3,191122,0.0,E,D*39
$IMU_ACC,0.09,-0.05,0.94,*
$IMU_GYRO,-7.51,-2.44,-12.39,*
$IMU_ANGLE,1.02,-8.72,-121.44,*
$IMU_MAG,-10653,-1036,-410,*
$LEMCA,ERRROR,0.01,m,-2.00,°
$JD_CAP_V,293.35,1210,*
$JD_IMU,-8.71,0.54,*
$JD_POS,49.63,4.02,*
$GPGGA,142128.20,4937.6006837,N,401.3274024,E,4,21,0.6,134.547,M,45.60,M,01,0141*54
$GPRMC,142128.20,A,4937.6007180,N,00401.3274131,E,2.606,295.7,191122,0.0,E,D*38
$IMU_ACC,0.13,-0.05,0.79,*
$IMU_GYRO,-3.42,-0.18,-23.07,*
$IMU_ANGLE,0.36,-8.70,-121.72,*
$IMU_MAG,-10311,-1037,-396,*
$LEMCA,ERRROR,0.00,m,0.00,°
$GPGGA,142128.30,4937.6007174,N,401.3272865,E,4,21,0.6,134.536,M,45.60,M,01,0141*57
$GPRMC,142128.30,A,4937.6007530,N,00401.3273167,E,2.584,299.2,191122,0.0,E,D*32
$IMU_ACC,0.08,-0.04,0.83,*
$IMU_GYRO,-1.28,-3.36,-33.33,*
$IMU_ANGLE,0.15,-8.84,-123.09,*
$IMU_MAG,-10328,-1047,-406,*
$LEMCA,ERRROR,0.00,m,0.00,°
$JD_CAP_V,299.00,1225,*
$JD_IMU,-9.23,0.21,*
$JD_POS,49.63,4.02,*
$GPGGA,142128.40,4937.6007583,N,401.3271660,E,4,21,0.6,134.505,M,45.60,M,01,0141*54
$GPRMC,142128.40,A,4937.6007873,N,00401.3272160,E,2.662,297.7,191122,0.0,E,D*39
$IMU_ACC,0.11,-0.05,1.15,*
$IMU_GYRO,0.73,-12.02,-36.80,*
$IMU_ANGLE,0.29,-9.57,-125.14,*
$IMU_MAG,-10196,-1250,-405,*
$LEMCA,ERRROR,0.00,m,-5.00,°
$GPGGA,142128.50,4937.6008080,N,401.3270520,E,4,21,0.6,134.501,M,45.60,M,01,0141*5E
$GPRMC,142128.50,A,4937.6008255,N,00401.3271183,E,2.720,301.5,191122,0.0,E,D*3C
$IMU_ACC,0.10,0.01,1.16,*
$IMU_GYRO,7.08,-10.93,-23.50,*
$IMU_ANGLE,0.87,-10.63,-127.09,*
$IMU_MAG,-10495,-1282,-424,*
$LEMCA,ERRROR,0.00,m,-4.00,°
$JD_CAP_V,304.62,1289,*
$JD_IMU,-10.92,1.13,*
$JD_POS,49.63,4.02,*
$GPGGA,142128.60,4937.6008548,N,401.3269437,E,4,21,0.6,134.508,M,45.60,M,01,0141*5A
$GPRMC,142128.60,A,4937.6008627,N,00401.3270231,E,2.601,301.0,191122,0.0,E,D*32
$IMU_ACC,0.13,-0.06,1.01,*
$IMU_GYRO,3.66,3.85,10.68,*
$IMU_ANGLE,1.14,-10.87,-125.89,*
$IMU_MAG,-10503,-1278,-420,*
$LEMCA,ERRROR,0.00,m,-3.00,°
$GPGGA,142128.70,4937.6008998,N,401.3268401,E,4,21,0.6,134.505,M,45.60,M,01,0141*53
$GPRMC,142128.70,A,4937.6009005,N,00401.3269291,E,2.589,301.8,191122,0.0,E,D*3D
$IMU_ACC,0.09,-0.08,0.82,*
$IMU_GYRO,2.99,6.96,-3.60,*
$IMU_ANGLE,1.13,-10.26,-123.55,*
$IMU_MAG,-10676,-1145,-409,*
$LEMCA,ERRROR,0.00,m,-2.00,°
$JD_CAP_V,303.68,1227,*
$JD_IMU,-9.94,1.22,*
$JD_POS,49.63,4.02,*
$GPGGA,142128.80,4937.6009524,N,401.3267428,E,4,21,0.6,134.502,M,45.60,M,01,0141*55
$GPRMC,142128.80,A,4937.6009437,N,00401.3268370,E,2.659,305.8,191122,0.0,E,D*32
$IMU_ACC,0.10,-0.11,0.89,*
$IMU_GYRO,7.93,0.61,-19.59,*
$IMU_ANGLE,1.37,-9.90,-123.21,*
$IMU_MAG,-10455,-1329,-405,*
$LEMCA,ERRROR,0.00,m,0.00,°
$GPGGA,142128.90,4937.6010102,N,401.3266487,E,4,20,0.7,134.479,M,45.60,M,01,0141*55
$GPRMC,142128.90,A,4937.6009917,N,00401.3267463,E,2.738,309.2,191122,0.0,E,D*36
$IMU_ACC,0.06,0.03,1.09,*
$IMU_GYRO,8.91,-7.75,-29.36,*
$IMU_ANGLE,2.09,-10.15,-124.27,*
$IMU_MAG,-10691,-1025,-416,*
$LEMCA,ERRROR,0.00,m,0.00,°
$JD_CAP_V,308.62,1298,*
$JD_IMU,-10.52,2.43,*
$JD_POS,49.63,4.02,*
$GPGGA,142129.00,4937.6010632,N,401.3265604,E,4,20,0.7,134.460,M,45.60,M,01,0141*5B
$GPRMC,142129.00,A,4937.6010401,N,00401.3266632,E,2.613,311.9,191122,0.0,E,D*31
$IMU_ACC,0.08,0.04,1.17,*
$IMU_GYRO,-0.49,-6.16,-18.68,*
$IMU_ANGLE,2.45,-10.66,-125.47,*
$IMU_MAG,-10664,-1314,-407,*
$LEMCA,ERRROR,0.00,m,1.00,°
$GPGGA,142129.10,4937.6011157,N,401.3264738,E,4,20,0.7,134.469,M,45.60,M,01,0141*59
$GPRMC,142129.10,A,4937.6010892,N,00401.3265804,E,2.622,312.4,191122,0.0,E,D*32
$IMU_ACC,0.15,-0.05,1.04,*
$IMU_GYRO,-0.31,3.85,-15.75,*
$IMU_ANGLE,2.30,-10.60,-125.63,*
$IMU_MAG,-10428,-1396,-408,*
$LEMCA,ERRROR,0.00,m,0.00,°
$JD_CAP_V,312.14,1243,*
$JD_IMU,-10.15,2.30,*
$JD_POS,49.63,4.02,*
$GPGGA,142129.20,4937.6011683,N,401.3263803,E,4,20,0.7,134.482,M,45.60,M,01,0141*51
$GPRMC,142129.20,A,4937.6011420,N,00401.3264961,E,2.742,314.0,191122,0.0,E,D*33
$IMU_ACC,0.11,-0.04,0.79,*
$IMU_GYRO,0.55,7.81,-22.95,*
$IMU_ANGLE,2.30,-9.87,-125.70,*
$IMU_MAG,-10508,-1385,-399,*
$LEMCA,ERRROR,0.00,m,-1.00,°
$GPGGA,142129.30,4937.6012264,N,401.3262882,E,4,20,0.7,134.465,M,45.60,M,01,0141*5F
$GPRMC,142129.30,A,4937.6012005,N,00401.3264199,E,2.760,319.8,191122,0.0,E,D*38
$IMU_ACC,0.06,-0.01,0.85,*
$IMU_GYRO,-2.14,2.50,-33.33,*
$IMU_ANGLE,2.22,-9.26,-126.80,*
$IMU_MAG,-10524,-1152,-412,*
$LEMCA,ERRROR,0.00,m,2.00,°
$JD_CAP_V,317.85,1308,*
$JD_IMU,-9.11,2.12,*
$JD_POS,49.63,4.02,*
$GPGGA,142129.40,4937.6012885,N,401.3262013,E,4,20,0.7,134.439,M,45.60,M,01,0141*54
$GPRMC,142129.40,A,4937.6012576,N,00401.3263432,E,2.734,318.9,191122,0.0,E,D*3C
$IMU_ACC,0.08,-0.02,1.25,*
$IMU_GYRO,-0.06,0.73,-26.73,*
$IMU_ANGLE,2.07,-9.07,-128.32,*
$IMU_MAG,-10880,-1096,-409,*
$LEMCA,ERRROR,0.00,m,-3.00,°
$GPGGA,142129.50,4937.6013462,N,401.3261376,E,4,20,0.7,134.437,M,45.60,M,02,0141*5F
$GPRMC,142129.50,A,4937.6013178,N,00401.3262697,E,2.768,321.6,191122,0.0,E,D*36
$IMU_ACC,-0.01,-0.09,1.20,*
$IMU_GYRO,1.40,7.08,17.03,*
$IMU_ANGLE,2.13,-8.43,-126.30,*
$IMU_MAG,-10744,-1206,-423,*
$LEMCA,ERRROR,0.00,m,2.00,°
$JD_CAP_V,319.41,1312,*
$JD_IMU,-8.04,2.13,*
$JD_POS,49.63,4.02,*
$GPGGA,142129.60,4937.6014040,N,401.3261015,E,4,20,0.7,134.466,M,45.60,M,01,0141*5E
$GPRMC,142129.60,A,4937.6013823,N,00401.3262083,E,2.652,327.3,191122,0.0,E,D*3A
$IMU_ACC,0.02,-0.13,1.00,*
$IMU_GYRO,10.62,-1.04,-13.31,*
$IMU_ANGLE,2.29,-7.94,-123.99,*
$IMU_MAG,-10592,-1099,-417,*
$LEMCA,ERRROR,0.00,m,7.00,°
$GPGGA,142129.70,4937.6014639,N,401.3260716,E,4,20,0.7,134.471,M,45.60,M,01,0141*54
$GPRMC,142129.70,A,4937.6014479,N,00401.3261509,E,2.719,330.4,191122,0.0,E,D*34
$IMU_ACC,0.05,-0.01,0.84,*
$IMU_GYRO,7.93,-5.55,-35.34,*
$IMU_ANGLE,2.89,-7.99,-124.93,*
$IMU_MAG,-10447,-1033,-411,*
$LEMCA,ERRROR,0.00,m,6.00,°
$JD_CAP_V,324.02,1289,*
$JD_IMU,-8.20,3.17,*
$JD_POS,49.63,4.02,*
$GPGGA,142129.80,4937.6015257,N,401.3260504,E,4,20,0.7,134.456,M,45.60,M,01,0141*52
$GPRMC,142129.80,A,4937.6015163,N,00401.3261081,E,2.663,337.9,191122,0.0,E,D*37
$IMU_ACC,0.07,0.05,0.94,*
$IMU_GYRO,0.85,-7.69,-29.66,*
$IMU_ANGLE,3.23,-8.37,-126.83,*
$IMU_MAG,-10630,-1340,-389,*
$LEMCA,ERRROR,0.00,m,10.00,°
$GPGGA,142129.90,4937.6015856,N,401.3260170,E,4,20,0.7,134.445,M,45.60,M,01,0141*5D
$GPRMC,142129.90,A,4937.6015834,N,00401.3260646,E,2.621,337.1,191122,0.0,E,D*3F
$IMU_ACC,0.12,0.01,1.17,*
$IMU_GYRO,-3.66,-6.29,-2.87,*
$IMU_ANGLE,2.95,-8.90,-126.85,*
$IMU_MAG,-10441,-1131,-407,*
$LEMCA,ERRROR,0.00,m,8.00,°
$JD_CAP_V,328.56,1242,*
$JD_IMU,-9.07,2.61,*
$JD_POS,49.63,4.02,*
$GPGGA,142130.00,4937.6016471,N,401.3259634,E,4,20,0.7,134.459,M,45.60,M,01,0141*56
$GPRMC,142130.00,A,4937.6016506,N,00401.3260246,E,2.597,338.9,191122,0.0,E,D*3C
$IMU_ACC,0.03,0.09,1.13,*
$IMU_GYRO,-8.91,-0.92,-2.32,*
$IMU_ANGLE,2.30,-9.07,-125.08,*
$IMU_MAG,-10716,-1088,-409,*
$LEMCA,ERRROR,0.00,m,10.00,°
$GPGGA,142130.10,4937.6017114,N,401.3259069,E,4,21,0.7,134.481,M,45.60,M,01,0141*5A
$GPRMC,142130.10,A,4937.6017193,N,00401.3259833,E,2.657,338.7,191122,0.0,E,D*37
$IMU_ACC,0.07,-0.02,0.92,*
$IMU_GYRO,-10.01,1.40,-18.62,*
$IMU_ANGLE,1.26,-8.78,-124.45,*
$IMU_MAG,-10655,-969,-412,*
$LEMCA,ERRROR,0.00,m,7.00,°
$JD_CAP_V,331.53,1259,*
$JD_IMU,-8.56,0.68,*
$JD_POS,49.63,4.02,*
$GPGGA,142130.20,4937.6017777,N,401.3258572,E,4,21,0.7,134.489,M,45.60,M,01,0141*5C
$GPRMC,142130.20,A,4937.6017881,N,00401.3259515,E,2.589,343.3,191122,0.0,E,D*3F
$IMU_ACC,0.09,-0.04,0.81,*
$IMU_GYRO,-7.08,0.37,-25.57,*
$IMU_ANGLE,0.43,-8.49,-125.20,*
$IMU_MAG,-10673,-1266,-407,*
$LEMCA,ERRROR,0.00,m,9.00,°
$GPGGA,142130.30,4937.6018532,N,401.3258130,E,4,21,0.7,134.487,M,45.60,M,01,0141*5D
$GPRMC,142130.30,A,4937.6018577,N,00401.3259188,E,2.622,343.0,191122,0.0,E,D*34
$IMU_ACC,0.11,-0.01,0.84,*
$IMU_GYRO,-1.71,-3.54,-30.03,*
$IMU_ANGLE,0.12,-8.60,-126.59,*
$IMU_MAG,-10435,-1065,-418,*
$LEMCA,ERRROR,0.00,m,5.00,°
$JD_CAP_V,337.83,1243,*
$JD_IMU,-8.93,0.10,*
$JD_POS,49.63,4.02,*
$GPGGA,142130.40,4937.6019298,N,401.3257828,E,4,21,0.7,134.495,M,45.60,M,00,0141*51
$GPRMC,142130.40,A,4937.6019266,N,00401.3258963,E,2.683,343.5,191122,0.0,E,D*37
$IMU_ACC,0.08,-0.04,1.02,*
$IMU_GYRO,0.06,-8.30,-33.87,*
$IMU_ANGLE,0.14,-9.18,-128.04,*
$IMU_MAG,-10508,-999,-418,*
$LEMCA,ERRROR,0.01,m,2.00,°
$GPGGA,142130.50,4937.6020132,N,401.3257593,E,4,21,0.7,134.478,M,45.60,M,01,0141*56
$GPRMC,142130.50,A,4937.6019994,N,00401.3258669,E,2.711,345.3,191122,0.0,E,D*3F
$IMU_ACC,0.03,-0.06,1.17,*
$IMU_GYRO,4.33,-12.88,-48.46,*
$IMU_ANGLE,0.57,-10.17,-130.44,*
$IMU_MAG,-10337,-1362,-378,*
$LEMCA,ERRROR,0.00,m,-1.00,°
$JD_CAP_V,346.01,1285,*
$JD_IMU,-10.76,0.95,*
$JD_POS,49.63,4.02,*
$GPGGA,142130.60,4937.6020951,N,401.3257429,E,4,21,0.7,134.495,M,45.60,M,01,0141*5B
$GPRMC,142130.60,A,4937.6020720,N,00401.3258451,E,2.664,349.0,191122,0.0,E,D*32
$IMU_ACC,0.10,0.06,1.06,*
$IMU_GYRO,2.14,-10.68,-35.16,*
$IMU_ANGLE,1.12,-11.02,-132.71,*
$IMU_MAG,-10395,-1161,-423,*
$LEMCA,ERRROR,0.00,m,-1.00,°
$GPGGA,142130.70,4937.6021747,N,401.3257183,E,4,21,0.7,134.506,M,45.60,M,01,0141*5C
$GPRMC,142130.70,A,4937.6021409,N,00401.3258161,E,2.576,344.8,191122,0.0,E,D*39
$IMU_ACC,0.17,-0.01,0.87,*
$IMU_GYRO,0.67,5.00,-9.34,*
$IMU_ANGLE,1.27,-10.92,-132.26,*
$IMU_MAG,-10794,-1032,-420,*
$LEMCA,ERRROR,0.00,m,-6.00,°
$JD_CAP_V,350.15,1221,*
$JD_IMU,-10.45,1.39,*
$JD_POS,49.63,4.02,*
$GPGGA,142130.80,4937.6022592,N,401.3256973,E,4,21,0.7,134.500,M,45.60,M,01,0141*5A
$GPRMC,142130.80,A,4937.6022173,N,00401.3257902,E,2.818,347.6,191122,0.0,E,D*37
$IMU_ACC,0.11,-0.09,0.79,*
$IMU_GYRO,5.74,5.55,-19.35,*
$IMU_ANGLE,1.52,-10.29,-131.76,*
$IMU_MAG,-10436,-1218,-416,*
$LEMCA,ERRROR,0.01,m,-5.00,°
$GPGGA,142130.90,4937.6023450,N,401.3256844,E,4,21,0.7,134.482,M,45.60,M,01,0141*5B
$GPRMC,142130.90,A,4937.6022948,N,00401.3257726,E,2.824,351.6,191122,0.0,E,D*36
$IMU_ACC,0.07,-0.02,1.01,*
$IMU_GYRO,9.70,-2.75,-25.15,*
$IMU_ANGLE,2.35,-10.19,-132.21,*
$IMU_MAG,-10309,-1226,-407,*
$LEMCA,ERRROR,0.01,m,-3.00,°
$JD_CAP_V,354.24,1338,*
$JD_IMU,-10.54,2.91,*
$JD_POS,49.63,4.02,*
$GPGGA,142131.00,4937.6024295,N,401.3256748,E,4,21,0.7,134.477,M,45.60,M,01,0141*52
$GPRMC,142131.00,A,4937.6023701,N,00401.3257565,E,2.739,352.1,191122,0.0,E,D*3E
$IMU_ACC,0.04,-0.02,1.18,*
$IMU_GYRO,7.14,-12.39,-6.04,*
$IMU_ANGLE,3.11,-10.87,-131.67,*
$IMU_MAG,-10533,-1238,-404,*
$LEMCA,ERRROR,0.00,m,-3.00,°
$GPGGA,142131.10,4937.6025089,N,401.3256696,E,4,21,0.7,134.478,M,45.60,M,01,0141*50
$GPRMC,142131.10,A,4937.6024450,N,00401.3257461,E,2.710,354.8,191122,0.0,E,D*3E
$IMU_ACC,0.10,-0.01,1.13,*
$IMU_GYRO,5.80,-15.81,-22.95,*
$IMU_ANGLE,3.55,-11.97,-131.12,*
$IMU_MAG,-10555,-1214,-417,*
$LEMCA,ERRROR,0.00,m,-3.00,°
$JD_CAP_V,356.89,1284,*
$JD_IMU,-12.44,3.80,*
$JD_POS,49.63,4.02,*
$GPGGA,142131.20,4937.6025785,N,401.3256592,E,4,21,0.7,134.491,M,45.60,M,01,0141*58
$GPRMC,142131.20,A,4937.6025125,N,00401.3257392,E,2.438,356.2,191122,0.0,E,D*31
$IMU_ACC,0.22,0.01,0.85,*
$IMU_GYRO,-0.67,-2.20,-27.89,*
$IMU_ANGLE,3.83,-12.46,-132.07,*
$IMU_MAG,-9882,-1383,-385,*
$LEMCA,ERRROR,0.01,m,-4.00,°
$GPGGA,142131.30,4937.6026668,N,401.3256448,E,4,21,0.7,134.483,M,45.60,M,01,0141*5D
$GPRMC,142131.30,A,4937.6025915,N,00401.3257320,E,2.851,356.6,191122,0.0,E,D*35
$IMU_ACC,0.19,-0.03,0.80,*
$IMU_GYRO,-4.82,8.06,-29.11,*
$IMU_ANGLE,3.58,-11.89,-132.75,*
$IMU_MAG,-11148,-862,-459,*
$LEMCA,ERRROR,0.01,m,-6.00,°
$JD_CAP_V,2.12,1351,*
$JD_IMU,-11.32,3.32,*
$JD_POS,49.63,4.02,*
$GPGGA,142131.40,4937.6027660,N,401.3256412,E,4,20,0.7,134.459,M,45.60,M,01,0141*5A
$GPRMC,142131.40,A,4937.6026738,N,00401.3257334,E,2.965,0.6,191122,0.0,E,D*33
$IMU_ACC,0.08,-0.07,1.00,*
$IMU_GYRO,-5.49,5.37,-42.85,*
$IMU_ANGLE,3.19,-11.05,-134.49,*
$IMU_MAG,-10328,-1378,-413,*
$LEMCA,ERRROR,0.01,m,5.00,°
$GPGGA,142131.50,4937.6028652,N,401.3256668,E,4,20,0.7,134.456,M,45.60,M,01,0141*55
$GPRMC,142131.50,A,4937.6027559,N,00401.3257513,E,2.833,4.4,191122,0.0,E,D*31
$IMU_ACC,-0.02,-0.08,1.18,*
$IMU_GYRO,0.92,-8.79,-57.13,*
$IMU_ANGLE,3.13,-10.90,-137.66,*
$IMU_MAG,-10450,-985,-415,*
$LEMCA,ERRROR,0.02,m,7.00,°
$JD_CAP_V,11.46,1343,*
$JD_IMU,-11.33,3.44,*
$JD_POS,49.63,4.02,*
$GPGGA,142131.60,4937.6029374,N,401.3256973,E,4,20,0.7,134.459,M,45.60,M,01,0141*5C
$GPRMC,142131.60,A,4937.6028256,N,00401.3257652,E,2.533,7.4,191122,0.0,E,D*3D
$IMU_ACC,0.11,0.05,1.08,*
$IMU_GYRO,0.00,-11.05,-39.31,*
$IMU_ANGLE,3.53,-11.54,-140.58,*
$IMU_MAG,-10768,-1178,-414,*
$LEMCA,ERRROR,0.01,m,7.00,°
$GPGGA,142131.70,4937.6030026,N,401.3257287,E,4,20,0.7,134.477,M,45.60,M,01,0141*5C
$GPRMC,142131.70,A,4937.6028985,N,00401.3257801,E,2.651,7.6,191122,0.0,E,D*34
$IMU_ACC,0.17,-0.01,0.89,*
$IMU_GYRO,1.40,3.42,-13.55,*
$IMU_ANGLE,3.63,-11.47,-140.34,*
$IMU_MAG,-10862,-1060,-425,*
$LEMCA,ERRROR,0.00,m,8.00,°
$JD_CAP_V,15.91,1256,*
$JD_IMU,-11.11,3.60,*
$JD_POS,49.63,4.02,*
$GPGGA,142131.80,4937.6030688,N,401.3257592,E,4,20,0.7,134.468,M,45.60,M,01,0141*5C
$GPRMC,142131.80,A,4937.6029729,N,00401.3258007,E,2.722,10.2,191122,0.0,E,D*04
$IMU_ACC,0.12,-0.06,0.84,*
$IMU_GYRO,1.22,3.54,-28.32,*
$IMU_ANGLE,3.63,-10.95,-140.10,*
$IMU_MAG,-10353,-1018,-393,*
$LEMCA,ERRROR,0.00,m,8.00,°
$GPGGA,142131.90,4937.6031436,N,401.3257913,E,4,20,0.7,134.455,M,45.60,M,01,0141*50
$GPRMC,142131.90,A,4937.6030474,N,00401.3258274,E,2.758,13.1,191122,0.0,E,D*0D
$IMU_ACC,0.08,0.02,1.10,*
$IMU_GYRO,3.91,-2.93,-29.72,*
$IMU_ANGLE,3.94,-10.83,-140.76,*
$IMU_MAG,-10548,-1077,-403,*
$LEMCA,ERRROR,0.00,m,8.00,°
$JD_CAP_V,20.88,1307,*
$JD_IMU,-10.84,4.15,*
$JD_POS,49.63,4.02,*
$GPGGA,142132.00,4937.6032169,N,401.3258203,E,4,20,0.7,134.442,M,45.60,M,01,0141*55
$GPRMC,142132.00,A,4937.6031217,N,00401.3258530,E,2.742,12.6,191122,0.0,E,D*0F
$IMU_ACC,-0.04,0.08,1.23,*
$IMU_GYRO,3.72,-2.38,-7.45,*
$IMU_ANGLE,4.21,-10.82,-139.90,*
$IMU_MAG,-10689,-1033,-421,*
$LEMCA,ERRROR,0.00,m,9.00,°
$GPGGA,142132.10,4937.6032741,N,401.3258412,E,4,20,0.7,134.462,M,45.60,M,01,0141*5C
$GPRMC,142132.10,A,4937.6031852,N,00401.3258791,E,2.368,14.9,191122,0.0,E,D*09
$IMU_ACC,0.09,-0.06,1.05,*
$IMU_GYRO,0.73,0.00,-9.89,*
$IMU_ANGLE,4.00,-10.67,-138.07,*
$IMU_MAG,-10282,-932,-396,*
$LEMCA,ERRROR,0.02,m,7.00,°
$JD_CAP_V,21.80,1122,*
$JD_IMU,-10.47,3.86,*
$JD_POS,49.63,4.02,*
$GPGGA,142132.20,4937.6033281,N,401.3258726,E,4,20,0.7,134.475,M,45.60,M,01,0141*55
$GPRMC,142132.20,A,4937.6032481,N,00401.3259142,E,2.411,19.9,191122,0.0,E,D*06
$IMU_ACC,0.10,-0.07,0.84,*
$IMU_GYRO,1.22,0.12,-26.37,*
$IMU_ANGLE,3.83,-10.37,-137.46,*
$IMU_MAG,-10559,-1139,-400,*
$LEMCA,ERRROR,0.01,m,4.00,°
$GPGGA,142132.30,4937.6033785,N,401.3259080,E,4,20,0.7,134.480,M,45.60,M,01,0141*55
$GPRMC,142132.30,A,4937.6033047,N,00401.3259487,E,2.193,21.6,191122,0.0,E,D*0F
$IMU_ACC,0.16,-0.01,0.82,*
$IMU_GYRO,0.31,-3.72,-41.75,*
$IMU_ANGLE,3.90,-10.34,-138.57,*
$IMU_MAG,-10611,-1095,-405,*
$LEMCA,ERRROR,0.02,m,6.00,°
$JD_CAP_V,28.04,1039,*
$JD_IMU,-10.49,3.96,*
$JD_POS,49.63,4.02,*
$GPGGA,142132.40,4937.6034512,N,401.3259589,E,4,20,0.7,134.452,M,45.60,M,01,0141*5A
$GPRMC,142132.40,A,4937.6033700,N,00401.3259943,E,2.584,24.4,191122,0.0,E,D*0C
$IMU_ACC,0.15,0.05,1.02,*
$IMU_GYRO,-3.05,-6.90,-50.17,*
$IMU_ANGLE,3.97,-10.61,-141.04,*
$IMU_MAG,-10880,-1046,-434,*
$LEMCA,ERRROR,0.00,m,8.00,°
$GPGGA,142132.50,4937.6035205,N,401.3260222,E,4,20,0.7,134.463,M,45.60,M,01,0141*55
$GPRMC,142132.50,A,4937.6034289,N,00401.3260464,E,2.457,24.6,191122,0.0,E,D*01
$IMU_ACC,0.12,-0.04,1.18,*
$IMU_GYRO,0.00,2.44,-15.56,*
$IMU_ANGLE,3.82,-10.61,-142.13,*
$IMU_MAG,-10475,-1121,-417,*
$LEMCA,ERRROR,0.02,m,9.00,°
$JD_CAP_V,33.70,1164,*
$JD_IMU,-10.28,3.84,*
$JD_POS,49.63,4.02,*
$GPGGA,142132.60,4937.6035949,N,401.3260896,E,4,20,0.7,134.471,M,45.60,M,01,0141*53
$GPRMC,142132.60,A,4937.6034953,N,00401.3261021,E,2.725,28.6,191122,0.0,E,D*00
$IMU_ACC,0.01,-0.11,1.03,*
$IMU_GYRO,5.49,6.71,-16.85,*
$IMU_ANGLE,3.89,-10.01,-140.71,*
$IMU_MAG,-10375,-1177,-402,*
$LEMCA,ERRROR,0.00,m,6.00,°
$GPGGA,142132.70,4937.6036449,N,401.3261667,E,4,20,0.7,134.498,M,45.60,M,01,0141*5A
$GPRMC,142132.70,A,4937.6035474,N,00401.3261601,E,2.316,35.8,191122,0.0,E,D*0A
$IMU_ACC,0.04,-0.09,0.93,*
$IMU_GYRO,7.63,1.83,-33.51,*
$IMU_ANGLE,4.24,-9.44,-140.83,*
$IMU_MAG,-10994,-1309,-406,*
$LEMCA,ERRROR,0.02,m,2.00,°
$JD_CAP_V,38.27,1098,*
$JD_IMU,-9.23,4.53,*
$JD_POS,49.63,4.02,*
$GPGGA,142132.80,4937.6036836,N,401.3262607,E,4,20,0.7,134.507,M,45.60,M,01,0141*53
$GPRMC,142132.80,A,4937.6035996,N,00401.3262331,E,2.542,42.3,191122,0.0,E,D*0D
$IMU_ACC,0.06,-0.04,0.92,*
$IMU_GYRO,5.86,-2.87,-33.87,*
$IMU_ANGLE,4.64,-9.21,-141.73,*
$IMU_MAG,-10735,-1083,-409,*
$LEMCA,ERRROR,0.00,m,0.00,°
$GPGGA,142132.90,4937.6037118,N,401.3263412,E,4,20,0.7,134.490,M,45.60,M,01,0141*5E
$GPRMC,142132.90,A,4937.6036439,N,00401.3262992,E,2.224,44.1,191122,0.0,E,D*07
$IMU_ACC,0.05,-0.01,1.06,*
$IMU_GYRO,-0.98,-7.26,-27.71,*
$IMU_ANGLE,4.67,-9.43,-142.54,*
$IMU_MAG,-10507,-1253,-410,*
$LEMCA,ERRROR,0.02,m,0.00,°
$JD_CAP_V,44.44,1054,*
$JD_IMU,-9.72,4.47,*
$JD_POS,49.63,4.02,*
$GPGGA,142133.00,4937.6037459,N,401.3264171,E,4,20,0.7,134.497,M,45.60,M,01,0141*56
$GPRMC,142133.00,A,4937.6036888,N,00401.3263741,E,2.384,47.3,191122,0.0,E,D*02
$IMU_ACC,0.06,-0.03,1.16,*
$IMU_GYRO,-0.06,-3.78,-14.28,*
$IMU_ANGLE,4.35,-9.82,-142.27,*
$IMU_MAG,-10760,-1264,-428,*
$LEMCA,ERRROR,0.01,m,1.00,°
$GPGGA,142133.10,4937.6037781,N,401.3264934,E,4,21,0.7,134.518,M,45.60,M,01,0141*5F
$GPRMC,142133.10,A,4937.6037292,N,00401.3264535,E,2.362,51.9,191122,0.0,E,D*00
$IMU_ACC,0.08,-0.07,1.03,*
$IMU_GYRO,1.65,-4.82,-17.09,*
$IMU_ANGLE,4.12,-10.05,-141.28,*
$IMU_MAG,-10613,-1153,-416,*
$LEMCA,ERRROR,0.01,m,4.00,°
$JD_CAP_V,47.86,1119,*
$JD_IMU,-10.22,4.16,*
$JD_POS,49.63,4.02,*
$GPGGA,142133.20,4937.6038078,N,401.3265770,E,4,21,0.7,134.544,M,45.60,M,01,0141*54
$GPRMC,142133.20,A,4937.6037637,N,00401.3265382,E,2.342,57.9,191122,0.0,E,D*07
$IMU_ACC,0.10,-0.04,0.88,*
$IMU_GYRO,5.13,-5.13,-25.82,*
$IMU_ANGLE,4.25,-10.32,-140.98,*
$IMU_MAG,-10542,-1391,-410,*
$LEMCA,ERRROR,0.01,m,7.00,°
$GPGGA,142133.30,4937.6038398,N,401.3266660,E,4,21,0.7,134.558,M,45.60,M,01,0141*56
$GPRMC,142133.30,A,4937.6038000,N,00401.3266255,E,2.424,57.4,191122,0.0,E,D*09
$IMU_ACC,0.13,0.00,0.84,*
$IMU_GYRO,2.81,-6.47,-35.95,*
$IMU_ANGLE,4.54,-10.66,-141.60,*
$IMU_MAG,-10672,-1152,-425,*
$LEMCA,ERRROR,0.01,m,2.00,°
$JD_CAP_V,54.56,1149,*
$JD_IMU,-10.93,4.65,*
$JD_POS,49.63,4.02,*
$GPGGA,142133.40,4937.6038780,N,401.3267623,E,4,21,0.7,134.562,M,45.60,M,01,0141*53
$GPRMC,142133.40,A,4937.6038308,N,00401.3267173,E,2.419,62.6,191122,0.0,E,D*09
$IMU_ACC,0.07,0.03,1.02,*
$IMU_GYRO,-2.38,-7.51,-39.67,*
$IMU_ANGLE,4.65,-11.05,-143.14,*
$IMU_MAG,-11000,-852,-421,*
$LEMCA,ERRROR,0.01,m,4.00,°
$GPGGA,142133.50,4937.6039169,N,401.3268821,E,4,21,0.7,134.569,M,45.60,M,01,0141*5A
$GPRMC,142133.50,A,4937.6038608,N,00401.3268258,E,2.479,65.9,191122,0.0,E,D*06
$IMU_ACC,0.06,-0.03,1.20,*
$IMU_GYRO,-1.34,-10.93,-47.55,*
$IMU_ANGLE,4.64,-11.67,-145.05,*
$IMU_MAG,-10606,-1153,-420,*
$LEMCA,ERRROR,0.01,m,2.00,°
$JD_CAP_V,63.61,1175,*
$JD_IMU,-12.02,4.81,*
$JD_POS,49.63,4.02,*
$GPGGA,142133.60,4937.6039459,N,401.3269904,E,4,21,0.7,134.580,M,45.60,M,01,0141*5F
$GPRMC,142133.60,A,4937.6038835,N,00401.3269207,E,2.368,69.8,191122,0.0,E,D*04
$IMU_ACC,0.05,-0.01,1.05,*
$IMU_GYRO,4.46,-9.34,-36.13,*
$IMU_ANGLE,4.95,-12.18,-146.55,*
$IMU_MAG,-10824,-1220,-442,*
$LEMCA,ERRROR,0.01,m,2.00,°
$GPGGA,142133.70,4937.6039630,N,401.3270873,E,4,21,0.7,134.612,M,45.60,M,01,0141*52
$GPRMC,142133.70,A,4937.6039009,N,00401.3270129,E,2.248,73.8,191122,0.0,E,D*0C
$IMU_ACC,0.10,-0.02,0.89,*
$IMU_GYRO,4.58,-7.26,-34.36,*
$IMU_ANGLE,5.39,-12.46,-147.18,*
$IMU_MAG,-10202,-862,-417,*
$LEMCA,ERRROR,0.02,m,3.00,°
$JD_CAP_V,70.94,1065,*
$JD_IMU,-12.64,5.67,*
$JD_POS,49.63,4.02,*
$GPGGA,142133.80,4937.6039721,N,401.3271788,E,4,21,0.7,134.634,M,45.60,M,01,0141*52
$GPRMC,142133.80,A,4937.6039154,N,00401.3271034,E,2.181,76.2,191122,0.0,E,D*0F
$IMU_ACC,0.11,0.01,0.91,*
$IMU_GYRO,3.54,-10.19,-42.85,*
$IMU_ANGLE,5.84,-12.78,-148.40,*
$IMU_MAG,-10516,-1094,-407,*
$LEMCA,ERRROR,0.02,m,0.00,°
$GPGGA,142133.90,4937.6039745,N,401.3272706,E,4,21,0.7,134.627,M,45.60,M,01,0141*56
$GPRMC,142133.90,A,4937.6039219,N,00401.3271946,E,2.147,83.8,191122,0.0,E,D*02
$IMU_ACC,0.17,0.06,1.02,*
$IMU_GYRO,1.95,-7.26,-33.63,*
$IMU_ANGLE,6.30,-13.17,-149.82,*
$IMU_MAG,-10845,-1344,-428,*
$LEMCA,ERRROR,0.02,m,5.00,°
$JD_CAP_V,78.89,1017,*
$JD_IMU,-13.27,6.45,*
$JD_POS,49.63,4.02,*
$GPGGA,142134.00,4937.6039861,N,401.3273853,E,4,20,0.7,134.633,M,45.60,M,01,0141*5B
$GPRMC,142134.00,A,4937.6039309,N,00401.3272882,E,2.215,81.5,191122,0.0,E,D*0D
$IMU_ACC,0.20,0.04,1.12,*
$IMU_GYRO,-0.92,-1.34,-23.01,*
$IMU_ANGLE,6.45,-13.24,-150.10,*
$IMU_MAG,-10678,-1198,-419,*
$LEMCA,ERRROR,0.01,m,0.00,°
$GPGGA,142134.10,4937.6040012,N,401.3275073,E,4,20,0.7,134.663,M,45.60,M,01,0141*51
$GPRMC,142134.10,A,4937.6039379,N,00401.3273886,E,2.363,83.9,191122,0.0,E,D*00
$IMU_ACC,0.10,0.05,1.00,*
$IMU_GYRO,-2.14,-3.54,-25.76,*
$IMU_ANGLE,6.37,-13.12,-150.12,*
$IMU_MAG,-10609,-950,-418,*
$LEMCA,ERRROR,0.01,m,0.00,°
$JD_CAP_V,83.79,1120,*
$JD_IMU,-13.17,6.28,*
$JD_POS,49.63,4.02,*
$GPGGA,142134.20,4937.6040083,N,401.3276216,E,4,21,0.7,134.683,M,45.60,M,01,0141*57
$GPRMC,142134.20,A,4937.6039389,N,00401.3274811,E,2.167,89.0,191122,0.0,E,D*00
$IMU_ACC,0.16,0.00,0.89,*
$IMU_GYRO,1.53,-3.66,-30.27,*
$IMU_ANGLE,6.33,-13.20,-150.21,*
$IMU_MAG,-10492,-1083,-425,*
$LEMCA,ERRROR,0.02,m,2.00,°
$GPGGA,142134.30,4937.6040072,N,401.3277383,E,4,21,0.7,134.698,M,45.60,M,01,0141*5E
$GPRMC,142134.30,A,4937.6039372,N,00401.3275748,E,2.194,91.6,191122,0.0,E,D*04
$IMU_ACC,0.18,0.01,0.85,*
$IMU_GYRO,-0.98,-0.49,-32.65,*
$IMU_ANGLE,6.41,-13.11,-150.38,*
$IMU_MAG,-10564,-1280,-417,*
$LEMCA,ERRROR,0.01,m,1.00,°
$JD_CAP_V,90.26,1040,*
$JD_IMU,-12.96,6.37,*
$JD_POS,49.63,4.02,*
$GPGGA,142134.40,4937.6040012,N,401.3278607,E,4,21,0.7,134.701,M,45.60,M,01,0141*58
$GPRMC,142134.40,A,4937.6039332,N,00401.3276776,E,2.409,93.4,191122,0.0,E,D*08
$IMU_ACC,0.20,0.00,0.96,*
$IMU_GYRO,-4.76,0.12,-37.48,*
$IMU_ANGLE,6.30,-12.87,-151.07,*
$IMU_MAG,-10886,-1321,-409,*
$LEMCA,ERRROR,0.00,m,0.00,°
$GPGGA,142134.50,4937.6039825,N,401.3279942,E,4,21,0.7,134.686,M,45.60,M,02,0141*59
$GPRMC,142134.50,A,4937.6039202,N,00401.3277808,E,2.462,101.0,191122,0.0,E,D*3F
$IMU_ACC,0.13,-0.09,1.15,*
$IMU_GYRO,-3.54,-2.50,-48.34,*
$IMU_ANGLE,6.10,-12.58,-152.56,*
$IMU_MAG,-10839,-1271,-413,*
$LEMCA,ERRROR,0.00,m,2.00,°
$JD_CAP_V,98.92,1167,*
$JD_IMU,-12.47,6.26,*
$JD_POS,49.63,4.02,*
$GPGGA,142134.60,4937.6039501,N,401.3281312,E,4,20,0.7,134.710,M,45.60,M,01,0141*55
$GPRMC,142134.60,A,4937.6039064,N,00401.3278966,E,2.494,100.7,191122,0.0,E,D*37
$IMU_ACC,0.06,-0.09,1.08,*
$IMU_GYRO,7.39,-6.16,-48.65,*
$IMU_ANGLE,6.47,-12.46,-154.35,*
$IMU_MAG,-10708,-1034,-435,*
$LEMCA,ERRROR,0.02,m,3.00,°
$GPGGA,142134.70,4937.6039147,N,401.3282280,E,4,20,0.7,134.732,M,45.60,M,01,0141*5B
$GPRMC,142134.70,A,4937.6038864,N,00401.3279915,E,2.336,108.0,191122,0.0,E,D*3A
$IMU_ACC,0.10,-0.02,0.95,*
$IMU_GYRO,9.70,-3.48,-33.81,*
$IMU_ANGLE,7.35,-12.47,-155.51,*
$IMU_MAG,-10999,-1140,-402,*
$LEMCA,ERRROR,0.01,m,0.00,°
$JD_CAP_V,107.06,1107,*
$JD_IMU,-12.34,7.83,*
$JD_POS,49.63,4.02,*
$GPGGA,142134.80,4937.6038679,N,401.3283070,E,4,20,0.7,134.732,M,45.60,M,01,0141*53
